[{"phone_number":"(054)470-1010","city":"Calabanga","node_access_lock":"MLB-PH-LN-BICOL-A-CALABA","code":"ln-bicol-a-calabanga-196","province":"Camarines Sur","name":"M Lhuillier Calabanga","area":"Area A","official_branch_address":"SAN ANTONIO CALABANGA, CAMARINES SUR","country":"PH","region":{"code":"ln-bicol","meta":{"href":"https:\/\/www.mlepay.com\/api\/v1\/regions\/ln-bicol"},"name":"Bicol Region"},"business_hours":"NA","street_address1":"San Antonio Calabanga","id":"196","latlong":"13.707998307058048, 123.21469491534424","meta":{"href":"https:\/\/www.mlepay.com\/api\/v1\/branches\/ln-bicol-a-calabanga-196"},"status":"ACTIVE","ho":"Luzon\/NCR","bc_kp":"CALABA","tin_number":"004-265-130-680","zip_code":"4405"},{"phone_number":"054-4403445","city":"Daet","node_access_lock":"MLB-PH-LN-BICOL-A-DAET2","code":"ln-bicol-a-daet-688","province":"Camarines Norte","name":"M Lhuillier Daet","area":"Area A","official_branch_address":"MORENO ST KARILAGAN BLDG DAET CAM NORTE","country":"PH","region":{"code":"ln-bicol","meta":{"href":"https:\/\/www.mlepay.com\/api\/v1\/regions\/ln-bicol"},"name":"Bicol Region"},"business_hours":"NA","street_address1":"Moreno St., Daet","id":"688","latlong":"14.115807, 122.954867","meta":{"href":"https:\/\/www.mlepay.com\/api\/v1\/branches\/ln-bicol-a-daet-688"},"status":"ACTIVE","ho":"Luzon\/NCR","bc_kp":"DAET2","tin_number":"002-394-238-464","zip_code":"4600"},{"phone_number":"(054)447-6768","city":"Labo","node_access_lock":"MLB-PH-LN-BICOL-A-LABO","code":"ln-bicol-a-labo-695","province":"Camarines Norte","name":"M Lhuillier Labo","area":"Area A","official_branch_address":"MAHARLIKA HIGHWAY LABO, CAMARINES NORTE","country":"PH","region":{"code":"ln-bicol","meta":{"href":"https:\/\/www.mlepay.com\/api\/v1\/regions\/ln-bicol"},"name":"Bicol Region"},"business_hours":"NA","street_address1":"Pandi Bldg. National Highway Labo","id":"695","latlong":"14.115644, 122.941024","meta":{"href":"https:\/\/www.mlepay.com\/api\/v1\/branches\/ln-bicol-a-labo-695"},"status":"ACTIVE","ho":"Luzon\/NCR","bc_kp":"LABO","tin_number":"002-394-238-886","zip_code":"4604"},{"phone_number":"(054) 451-2024","city":"Libmanan","node_access_lock":"MLB-PH-LN-BICOL-A-LIBMAN","code":"ln-bicol-a-libmanan-166","province":"Camarines Sur","name":"M Lhuillier Libmanan","area":"Area A","official_branch_address":"282 Aureus St., Poblacion, Libmanan, Camarines Sur, 4407","country":"PH","region":{"code":"ln-bicol","meta":{"href":"https:\/\/www.mlepay.com\/api\/v1\/regions\/ln-bicol"},"name":"Bicol Region"},"business_hours":"NA","street_address1":"282 Aureus St.","id":"166","latlong":"13.694812211910685, 123.06129990674594","meta":{"href":"https:\/\/www.mlepay.com\/api\/v1\/branches\/ln-bicol-a-libmanan-166"},"status":"ACTIVE","ho":"Luzon\/NCR","bc_kp":"LIBMAN","tin_number":"004-265-130-496","zip_code":"4407"},{"phone_number":"(054) 477-72-94","city":"Pili","node_access_lock":"MLB-PH-LN-BICOL-B-PILI","code":"ln-bicol-a-pili-692","province":"Camarines Sur","name":"M Lhuillier Pili","area":"Area B","official_branch_address":"San Vicente, Pili, Camarines Sur","country":"PH","region":{"code":"ln-bicol","meta":{"href":"https:\/\/www.mlepay.com\/api\/v1\/regions\/ln-bicol"},"name":"Bicol Region"},"business_hours":"NA","street_address1":"Cosay Bldg. San Vicente","id":"692","latlong":"13.551321, 123.277565","meta":{"href":"https:\/\/www.mlepay.com\/api\/v1\/branches\/ln-bicol-a-pili-692"},"status":"ACTIVE","ho":"Luzon\/NCR","bc_kp":"PILI","tin_number":"002-394-238-884","zip_code":"4418"},{"phone_number":"09479991382","city":"Sipocot","node_access_lock":"MLB-PH-LN-BICOL-A-SIPOCT","code":"ln-bicol-a-sipocot-694","province":"Camarines Sur","name":"M Lhuillier Sipocot","area":"Area A","official_branch_address":"SAN JUAN AVE. SIPOCOT, CAMARINES SUR","country":"PH","region":{"code":"ln-bicol","meta":{"href":"https:\/\/www.mlepay.com\/api\/v1\/regions\/ln-bicol"},"name":"Bicol Region"},"business_hours":"NA","street_address1":"San Juan Ave.","id":"694","latlong":"13.765855, 122.972771","meta":{"href":"https:\/\/www.mlepay.com\/api\/v1\/branches\/ln-bicol-a-sipocot-694"},"status":"ACTIVE","ho":"Luzon\/NCR","bc_kp":"SIPOCT","tin_number":"002-394-238-448","zip_code":"4408"},{"phone_number":"","city":"Naga City","node_access_lock":"MLB-PH-LN-BICOL-A-SMNAGA","code":"ln-bicol-a-sm_city_naga_showroom-844","province":"Camarines Sur","name":"M Lhuillier SM City Naga Showroom","area":"Area A","official_branch_address":"","country":"PH","region":{"code":"ln-bicol","meta":{"href":"https:\/\/www.mlepay.com\/api\/v1\/regions\/ln-bicol"},"name":"Bicol Region"},"business_hours":"NA","street_address1":"Central Business District 2, Ninoy and Cory Ave","id":"844","latlong":"13.621863708190835, 123.19014281349178","meta":{"href":"https:\/\/www.mlepay.com\/api\/v1\/branches\/ln-bicol-a-sm_city_naga_showroom-844"},"status":"ACTIVE","ho":"Luzon\/NCR","bc_kp":"SMNAGA","tin_number":"","zip_code":"4400"},{"phone_number":"(054)440-0755","city":"Daet","node_access_lock":"MLB-PH-LN-BICOL-A-VINZON","code":"ln-bicol-a-vinzons-931","province":"Camarines Norte","name":"M Lhuillier Vinzons","area":"Area A","official_branch_address":"#2321 VINZONS AVENUE DAET CAMARINES NORTE","country":"PH","region":{"code":"ln-bicol","meta":{"href":"https:\/\/www.mlepay.com\/api\/v1\/regions\/ln-bicol"},"name":"Bicol Region"},"business_hours":"NA","street_address1":"#2321 Vinzons Avenue Brgy 5 Daet","id":"931","latlong":"14.169243810946606, 122.9112172883606","meta":{"href":"https:\/\/www.mlepay.com\/api\/v1\/branches\/ln-bicol-a-vinzons-931"},"status":"ACTIVE","ho":"Luzon\/NCR","bc_kp":"VINZON","tin_number":"002-394-238-949","zip_code":"4603"},{"phone_number":"054-4557136","city":"Baao","node_access_lock":"MLB-PH-LN-BICOL-B-BAAO","code":"ln-bicol-b-baao-438","province":"Camarines Sur","name":"M Lhuillier Baao","area":"Area B","official_branch_address":"NATIONAL HI WAY DEL ROSARIO, BAAO, CAM SUR","country":"PH","region":{"code":"ln-bicol","meta":{"href":"https:\/\/www.mlepay.com\/api\/v1\/regions\/ln-bicol"},"name":"Bicol Region"},"business_hours":"8:00 AM TO 6:00 PM","street_address1":"National high-way Del Rosario ","id":"438","latlong":"13.453888, 123.365232","meta":{"href":"https:\/\/www.mlepay.com\/api\/v1\/branches\/ln-bicol-b-baao-438"},"status":"ACTIVE","ho":"Luzon\/NCR","bc_kp":"BAAO","tin_number":"004-265-130-194","zip_code":"4432"},{"phone_number":"0544736457","city":"Naga City","node_access_lock":"MLB-PH-LN-BICOL-A-NAGACT","code":"ln-bicol-b-naga_1-691","province":"Camarines Sur","name":"M Lhuillier Naga 1","area":"Area A","official_branch_address":"PRIETO-TOLENTINO BLDG., PANGANIBAN DRIVE, DINAGA, NAGA CITY, CAM SUR","country":"PH","region":{"code":"ln-bicol","meta":{"href":"https:\/\/www.mlepay.com\/api\/v1\/regions\/ln-bicol"},"name":"Bicol Region"},"business_hours":"NA","street_address1":"Prieto Tolentino Bldg. Panganiban Drive","id":"691","latlong":"13.622446, 123.193516","meta":{"href":"https:\/\/www.mlepay.com\/api\/v1\/branches\/ln-bicol-b-naga_1-691"},"status":"ACTIVE","ho":"Luzon\/NCR","bc_kp":"NAGACT","tin_number":"002-394-238-746","zip_code":"4400"},{"phone_number":"+639479991569","city":"Naga City","node_access_lock":"MLB-PH-LN-BICOL-A-NAGAEM","code":"ln-bicol-b-naga_2-63","province":"Camarines Sur","name":"M Lhuillier Naga 2","area":"Area A","official_branch_address":"ML NAGA2 BRANCH, DOOR 2, NAGALAND HOTEL, ELIAS ANGELES STREET, STA. CRUZ, NAGA CITY 4400","country":"PH","region":{"code":"ln-bicol","meta":{"href":"https:\/\/www.mlepay.com\/api\/v1\/regions\/ln-bicol"},"name":"Bicol Region"},"business_hours":"NA","street_address1":"Elias Angeles St. Sta.Cruz","id":"63","latlong":"13.623017, 123.186385","meta":{"href":"https:\/\/www.mlepay.com\/api\/v1\/branches\/ln-bicol-b-naga_2-63"},"status":"ACTIVE","ho":"Luzon\/NCR","bc_kp":"NAGAEM","tin_number":"000-396-619-000","zip_code":"4400"},{"phone_number":"09479992166","city":"Naga City","node_access_lock":"MLB-PH-LN-BICOL-A-NAGAC4","code":"ln-bicol-b-naga_4-285","province":"Camarines Sur","name":"M Lhuillier Naga 4","area":"Area A","official_branch_address":"GENERAL LUNA STREET, DINAGA NAGA CITY","country":"PH","region":{"code":"ln-bicol","meta":{"href":"https:\/\/www.mlepay.com\/api\/v1\/regions\/ln-bicol"},"name":"Bicol Region"},"business_hours":"NA","street_address1":"Gen. Luna St.,","id":"285","latlong":"13.624881, 123.185036","meta":{"href":"https:\/\/www.mlepay.com\/api\/v1\/branches\/ln-bicol-b-naga_4-285"},"status":"ACTIVE","ho":"Luzon\/NCR","bc_kp":"NAGAC4","tin_number":"004-265-130-981","zip_code":"4400"},{"phone_number":"054-472-3884","city":"Naga City","node_access_lock":"MLB-PH-LN-BICOL-A-NAGAC5","code":"ln-bicol-b-naga_5-312","province":"Camarines Sur","name":"M Lhuillier Naga 5","area":"Area A","official_branch_address":"CBD HOTEL BLDG., NINOY AND CORY AVE., TRIANGULO NAGA CITY","country":"PH","region":{"code":"ln-bicol","meta":{"href":"https:\/\/www.mlepay.com\/api\/v1\/regions\/ln-bicol"},"name":"Bicol Region"},"business_hours":"NA","street_address1":"CBD Hotel Building, Ninoy & Cory Avenue,","id":"312","latlong":"13.619787, 123.188583","meta":{"href":"https:\/\/www.mlepay.com\/api\/v1\/branches\/ln-bicol-b-naga_5-312"},"status":"ACTIVE","ho":"Luzon\/NCR","bc_kp":"NAGAC5","tin_number":"002-438-380-188","zip_code":"4400"},{"phone_number":"0947-999-2576","city":"Bacacay","node_access_lock":"MLB-PH-LN-BICOL-C-BACACY","code":"ln-bicol-c-bacacay-359","province":"Albay","name":"M Lhuillier Bacacay","area":"Area C","official_branch_address":"MAGSAYSAY AVENUE, POBLACION, BACACAY,ALBAY","country":"PH","region":{"code":"ln-bicol","meta":{"href":"https:\/\/www.mlepay.com\/api\/v1\/regions\/ln-bicol"},"name":"Bicol Region"},"business_hours":"NA","street_address1":"Fr. Banez Street , Magsaysay Avenue, Barangay 10 Poblacion (Near Children's Paradise)","id":"359","latlong":"13.291965, 123.790193","meta":{"href":"https:\/\/www.mlepay.com\/api\/v1\/branches\/ln-bicol-c-bacacay-359"},"status":"ACTIVE","ho":"Luzon\/NCR","bc_kp":"BACACY","tin_number":"002-438-380-138","zip_code":"4509"},{"phone_number":"(054)453-1204","city":"Goa","node_access_lock":"MLB-PH-LN-BICOL-B-GOA","code":"ln-bicol-c-goa-18","province":"Camarines Sur","name":"M Lhuillier Goa","area":"Area B","official_branch_address":"SAN JOSE ST.GOA, CAMARINES SUR","country":"PH","region":{"code":"ln-bicol","meta":{"href":"https:\/\/www.mlepay.com\/api\/v1\/regions\/ln-bicol"},"name":"Bicol Region"},"business_hours":"NA","street_address1":"San Jose St.","id":"18","latlong":"13.702032, 123.500492","meta":{"href":"https:\/\/www.mlepay.com\/api\/v1\/branches\/ln-bicol-c-goa-18"},"status":"ACTIVE","ho":"Luzon\/NCR","bc_kp":"GOA","tin_number":"004-265-130-193","zip_code":"4422"},{"phone_number":"(054)-4520020","city":"Ocampo","node_access_lock":"MLB-PH-LN-BICOL-B-OCAMPO","code":"ln-bicol-c-ocampo-222","province":"Camarines Sur","name":"M Lhuillier Ocampo","area":"Area B","official_branch_address":"SAN ROQUE ST. CORNER NAT'L ROAD POBLACION WEST OCAMPO CAMARINES SUR","country":"PH","region":{"code":"ln-bicol","meta":{"href":"https:\/\/www.mlepay.com\/api\/v1\/regions\/ln-bicol"},"name":"Bicol Region"},"business_hours":"NA","street_address1":"San Roque St., Corner National Road, Poblacion West","id":"222","latlong":"13.562111, 123.380702","meta":{"href":"https:\/\/www.mlepay.com\/api\/v1\/branches\/ln-bicol-c-ocampo-222"},"status":"ACTIVE","ho":"Luzon\/NCR","bc_kp":"OCAMPO","tin_number":"004-265-130-616","zip_code":"4419"},{"phone_number":"09479991607","city":"San Andres","node_access_lock":"MLB-PH-LN-BICOL-C-SNDRES","code":"ln-bicol-c-san_andres-686","province":"Catanduanes","name":"M Lhuillier San Andres","area":"Area C","official_branch_address":"SAN ROQUE, SAN ANDRES, CATANDUANES","country":"PH","region":{"code":"ln-bicol","meta":{"href":"https:\/\/www.mlepay.com\/api\/v1\/regions\/ln-bicol"},"name":"Bicol Region"},"business_hours":"NA","street_address1":"San Roque St.","id":"686","latlong":"13.570699, 124.142570","meta":{"href":"https:\/\/www.mlepay.com\/api\/v1\/branches\/ln-bicol-c-san_andres-686"},"status":"ACTIVE","ho":"Luzon\/NCR","bc_kp":"SNDRES","tin_number":"002-394-238-824","zip_code":"4810"},{"phone_number":"052-4874790","city":"Tabaco City","node_access_lock":"MLB-PH-LN-BICOL-C-TABAC1","code":"ln-bicol-c-tabaco_1-682","province":"Albay","name":"M Lhuillier Tabaco 1","area":"Area C","official_branch_address":"SANTILLAN ST., TABACO ALBAY","country":"PH","region":{"code":"ln-bicol","meta":{"href":"https:\/\/www.mlepay.com\/api\/v1\/regions\/ln-bicol"},"name":"Bicol Region"},"business_hours":"NA","street_address1":"Cor Santillian and Gen. Luna Sts.","id":"682","latlong":"13.358157, 123.730750","meta":{"href":"https:\/\/www.mlepay.com\/api\/v1\/branches\/ln-bicol-c-tabaco_1-682"},"status":"ACTIVE","ho":"Luzon\/NCR","bc_kp":"TABAC1","tin_number":"002-394-238-215 VAT","zip_code":"4511"},{"phone_number":"(052) 487-7401","city":"Tabaco City","node_access_lock":"MLB-PH-LN-BICOL-C-TABAC2","code":"ln-bicol-c-tabaco_2-683","province":"Albay","name":"M Lhuillier Tabaco 2","area":"Area C","official_branch_address":"ZIGA AVE. TABACO CITY","country":"PH","region":{"code":"ln-bicol","meta":{"href":"https:\/\/www.mlepay.com\/api\/v1\/regions\/ln-bicol"},"name":"Bicol Region"},"business_hours":"NA","street_address1":"Ziga Ave.","id":"683","latlong":"13.357425, 123.729819","meta":{"href":"https:\/\/www.mlepay.com\/api\/v1\/branches\/ln-bicol-c-tabaco_2-683"},"status":"ACTIVE","ho":"Luzon\/NCR","bc_kp":"TABAC2","tin_number":"002-394-238-164","zip_code":"4511"},{"phone_number":"(052) 487-6181","city":"Tabaco City","node_access_lock":"MLB-PH-LN-BICOL-C-TABAC3","code":"ln-bicol-c-tabaco_3-76","province":"Albay","name":"M Lhuillier Tabaco 3","area":"Area C","official_branch_address":"SIA KO PIO BLDG. GENERAL LUNA ST. QUINALE, TABACO CITY","country":"PH","region":{"code":"ln-bicol","meta":{"href":"https:\/\/www.mlepay.com\/api\/v1\/regions\/ln-bicol"},"name":"Bicol Region"},"business_hours":"NA","street_address1":"SIA KO Bldg., Gen. Luna St., Quinale","id":"76","latlong":"13.357678, 123.730425","meta":{"href":"https:\/\/www.mlepay.com\/api\/v1\/branches\/ln-bicol-c-tabaco_3-76"},"status":"ACTIVE","ho":"Luzon\/NCR","bc_kp":"TABAC3","tin_number":"004-265-130-351","zip_code":"4511"},{"phone_number":"(054) 452-3800","city":"Calabanga","node_access_lock":"MLB-PH-LN-BICOL-B-TIGAON","code":"ln-bicol-c-tigaon-197","province":"Camarines Sur","name":"M Lhuillier Tigaon","area":"Area B","official_branch_address":"JOSE FUENTEBELLANATIONAL HIWAY BRGY.POBLACION TIGAON CAMARINES SUR","country":"PH","region":{"code":"ln-bicol","meta":{"href":"https:\/\/www.mlepay.com\/api\/v1\/regions\/ln-bicol"},"name":"Bicol Region"},"business_hours":"NA","street_address1":"Brgy. San Antonio","id":"197","latlong":"13.707561, 123.213579","meta":{"href":"https:\/\/www.mlepay.com\/api\/v1\/branches\/ln-bicol-c-tigaon-197"},"status":"ACTIVE","ho":"Luzon\/NCR","bc_kp":"TIGAON","tin_number":"004-265-130-618","zip_code":"4405"},{"phone_number":"(052) 488-5105","city":"Tiwi","node_access_lock":"MLB-PH-LN-BICOL-C-TIWIAL","code":"ln-bicol-c-tiwial-447","province":"Albay","name":"M Lhuillier Tiwi","area":"Area C","official_branch_address":"SAN LORENZO ST., TIGBI TIWI ALBAY","country":"PH","region":{"code":"ln-bicol","meta":{"href":"https:\/\/www.mlepay.com\/api\/v1\/regions\/ln-bicol"},"name":"Bicol Region"},"business_hours":"NA","street_address1":"San Lorenzo Street, Pacis Building Barangay Tigbi","id":"447","latlong":"13.458586, 123.682580","meta":{"href":"https:\/\/www.mlepay.com\/api\/v1\/branches\/ln-bicol-c-tiwial-447"},"status":"ACTIVE","ho":"Luzon\/NCR","bc_kp":"TIWIAL","tin_number":"002-438-380-284","zip_code":"4513"},{"phone_number":"09479991423","city":"Virac","node_access_lock":"MLB-PH-LN-BICOL-C-VIRAC1","code":"ln-bicol-c-virac_1-684","province":"Catanduanes","name":"M Lhuillier Virac 1","area":"Area C","official_branch_address":"ALDEA BLDG., SAN JUAN VIRAC, CATANDUANES","country":"PH","region":{"code":"ln-bicol","meta":{"href":"https:\/\/www.mlepay.com\/api\/v1\/regions\/ln-bicol"},"name":"Bicol Region"},"business_hours":"NA","street_address1":"San Juan St.","id":"684","latlong":"13.577335, 124.228850","meta":{"href":"https:\/\/www.mlepay.com\/api\/v1\/branches\/ln-bicol-c-virac_1-684"},"status":"ACTIVE","ho":"Luzon\/NCR","bc_kp":"VIRAC1","tin_number":"002394238621","zip_code":"4800"},{"phone_number":"09479991424","city":"Virac","node_access_lock":"MLB-PH-LN-BICOL-C-VIRAC2","code":"ln-bicol-c-virac_2-685","province":"Catanduanes","name":"M Lhuillier Virac 2","area":"Area C","official_branch_address":"LIANKOBLDG, CONCEPCION ST., VIRAC, CATANDUANES","country":"PH","region":{"code":"ln-bicol","meta":{"href":"https:\/\/www.mlepay.com\/api\/v1\/regions\/ln-bicol"},"name":"Bicol Region"},"business_hours":"NA","street_address1":"Concepcion St.","id":"685","latlong":"13.577336, 124.228851","meta":{"href":"https:\/\/www.mlepay.com\/api\/v1\/branches\/ln-bicol-c-virac_2-685"},"status":"ACTIVE","ho":"Luzon\/NCR","bc_kp":"VIRAC2","tin_number":"002394238622","zip_code":"4800"},{"phone_number":"052-486-1155","city":"Polangui City","node_access_lock":"MLB-PH-LN-BICOL-C-POLANG","code":"ln-bicol-d-polangui_1-693","province":"Albay","name":"M Lhuillier Polangui 1","area":"Area C","official_branch_address":"LO BLDG., UBALIW, POLANGUI, ALBAY","country":"PH","region":{"code":"ln-bicol","meta":{"href":"https:\/\/www.mlepay.com\/api\/v1\/regions\/ln-bicol"},"name":"Bicol Region"},"business_hours":"NA","street_address1":"Lo Bldg. Ubaliw","id":"693","latlong":"13.294869, 123.485866","meta":{"href":"https:\/\/www.mlepay.com\/api\/v1\/branches\/ln-bicol-d-polangui_1-693"},"status":"ACTIVE","ho":"Luzon\/NCR","bc_kp":"POLANG","tin_number":"002-394-238-214","zip_code":"4506"},{"phone_number":"09479991341","city":"Masbate City","node_access_lock":"MLB-PH-LN-BICOL-E-PLACRM","code":"ln-bicol-f-placer-967","province":"Masbate","name":"M Lhuillier Placer","area":"Area E","official_branch_address":"DEVANADERA BLDG. BALANGAWAN ST. KATIPUNAN PLACER,MASBATE","country":"PH","region":{"code":"ln-bicol","meta":{"href":"https:\/\/www.mlepay.com\/api\/v1\/regions\/ln-bicol"},"name":"Bicol Region"},"business_hours":"NA","street_address1":"Balangawan St. Devanadera Bldg. Katipunan Placer","id":"967","latlong":"11.879577, 123.907256","meta":{"href":"https:\/\/www.mlepay.com\/api\/v1\/branches\/ln-bicol-f-placer-967"},"status":"ACTIVE","ho":"Luzon\/NCR","bc_kp":"PLACRM","tin_number":"002-394-238-966","zip_code":"5400"},{"phone_number":"(045) 409-0053","city":"Santa Ana","node_access_lock":"MLB-PH-LN-CENLUZ-C-STANA","code":"ln-cenluz-c-sta_ana-910","province":"Pampanga","name":"M Lhuillier Sta. Ana","area":"Area C","official_branch_address":"","country":"PH","region":{"code":"ln-cenluz","meta":{"href":"https:\/\/www.mlepay.com\/api\/v1\/regions\/ln-cenluz"},"name":"Central Luzon Region"},"business_hours":"7:00 AM TO 6:00 PM","street_address1":"122 C. DIzon St. San Joaquin Sta Ana, Pampanga","id":"910","latlong":"15.101294617956462, 120.76995849609375","meta":{"href":"https:\/\/www.mlepay.com\/api\/v1\/branches\/ln-cenluz-c-sta_ana-910"},"status":"ACTIVE","ho":"Luzon\/NCR","bc_kp":"STANA","tin_number":"002-394-238-802","zip_code":"2022"},{"phone_number":"0472376025","city":"Balanga City","node_access_lock":"MLB-PH-LN-CENLUZ-D-BALANG","code":"ln-cenluz-d-balanga_1-731","province":"Bataan","name":"M Lhuillier Balanga 1","area":"Area D","official_branch_address":"SANTIAGO BLDG CAPITOL DRIVE SAN JOSE BALANGA BATAAN","country":"PH","region":{"code":"ln-cenluz","meta":{"href":"https:\/\/www.mlepay.com\/api\/v1\/regions\/ln-cenluz"},"name":"Central Luzon Region"},"business_hours":"7:00 AM TO 7:00 PM","street_address1":"g\/f santiago bldg capitol drive san jose balanga city bataan","id":"731","latlong":"14.678112241576784, 120.53839266300201","meta":{"href":"https:\/\/www.mlepay.com\/api\/v1\/branches\/ln-cenluz-d-balanga_1-731"},"status":"ACTIVE","ho":"Luzon\/NCR","bc_kp":"BALANG","tin_number":"002-394-238-787","zip_code":"2100"},{"phone_number":"047-602-0400","city":"San Antonio","node_access_lock":"MLB-PH-LN-CENLUZ-F-RIZALS","code":"ln-cenluz-f-san_antonio_1-740","province":"Zambales","name":"M Lhuillier San Antonio 1","area":"Area F","official_branch_address":"RIZAL SAN ANTONIO ZAMBALES","country":"PH","region":{"code":"ln-cenluz","meta":{"href":"https:\/\/www.mlepay.com\/api\/v1\/regions\/ln-cenluz"},"name":"Central Luzon Region"},"business_hours":"1:00 AM TO 5:00 PM","street_address1":"National Hiway","id":"740","latlong":"14.947873900302017, 120.08984684944153","meta":{"href":"https:\/\/www.mlepay.com\/api\/v1\/branches\/ln-cenluz-f-san_antonio_1-740"},"status":"ACTIVE","ho":"Luzon\/NCR","bc_kp":"RIZALS","tin_number":"002-394-238-374","zip_code":"2206"},{"phone_number":"047-913-3048","city":"San Antonio","node_access_lock":"MLB-PH-LN-CENLUZ-F-RZALS2","code":"ln-cenluz-f-san_antonio_2-124","province":"Zambales","name":"M Lhuillier San Antonio 2","area":"Area F","official_branch_address":"119 T.R. YANGCO ST. RIZAL SAN ANTONIO, ZAMBALES","country":"PH","region":{"code":"ln-cenluz","meta":{"href":"https:\/\/www.mlepay.com\/api\/v1\/regions\/ln-cenluz"},"name":"Central Luzon Region"},"business_hours":"7:00 AM TO 6:00 PM","street_address1":"#119 T.R. Yangco Brgy Rizal","id":"124","latlong":"14.946795856284488, 120.09305477142334","meta":{"href":"https:\/\/www.mlepay.com\/api\/v1\/branches\/ln-cenluz-f-san_antonio_2-124"},"status":"ACTIVE","ho":"Luzon\/NCR","bc_kp":"RZALS2","tin_number":"004-265-130-446","zip_code":"2206"},{"phone_number":"(047) 602-0357","city":"San Marcelino","node_access_lock":"MLB-PH-LN-CENLUZ-F-SMARCE","code":"ln-cenluz-f-san_marcelino-907","province":"Zambales","name":"M Lhuillier San Marcelino","area":"Area F","official_branch_address":"CENTRAL SAN MARCELINO, ZAMBALES","country":"PH","region":{"code":"ln-cenluz","meta":{"href":"https:\/\/www.mlepay.com\/api\/v1\/regions\/ln-cenluz"},"name":"Central Luzon Region"},"business_hours":"7:00 AM TO 6:00 PM","street_address1":"Central","id":"907","latlong":"14.973973350900097, 120.14854431152344","meta":{"href":"https:\/\/www.mlepay.com\/api\/v1\/branches\/ln-cenluz-f-san_marcelino-907"},"status":"ACTIVE","ho":"Luzon\/NCR","bc_kp":"SMARCE","tin_number":"002-394-238-730","zip_code":"2207"},{"phone_number":"047-9133012","city":"San Narciso","node_access_lock":"MLB-PH-LN-CENLUZ-F-SNARCI","code":"ln-cenluz-f-san_narciso-86","province":"Zambales","name":"M Lhuillier San Narciso","area":"Area F","official_branch_address":"FADERA BLDG NAT'L ROAD BRGY SAN JOSE SAN NARCISO, ZAMBALES","country":"PH","region":{"code":"ln-cenluz","meta":{"href":"https:\/\/www.mlepay.com\/api\/v1\/regions\/ln-cenluz"},"name":"Central Luzon Region"},"business_hours":"7:00 AM TO 6:00 PM","street_address1":"Fadera Bldg., National Road Brgy San Jose San Narciso, Zambales","id":"86","latlong":"15.014505155055955, 120.07899888122552","meta":{"href":"https:\/\/www.mlepay.com\/api\/v1\/branches\/ln-cenluz-f-san_narciso-86"},"status":"ACTIVE","ho":"Luzon\/NCR","bc_kp":"SNARCI","tin_number":"004-265-130-304","zip_code":"2205"},{"phone_number":"09479992164","city":"Santa Cruz","node_access_lock":"MLB-PH-LN-CENLUZ-F-SCRUZ2","code":"ln-cenluz-f-sta_cruz_2-273","province":"Zambales","name":"M Lhuillier Sta. Cruz 2","area":"Area F","official_branch_address":"National Road, Pob.South, Sta.Cruz, Zambales","country":"PH","region":{"code":"ln-cenluz","meta":{"href":"https:\/\/www.mlepay.com\/api\/v1\/regions\/ln-cenluz"},"name":"Central Luzon Region"},"business_hours":"7:00 AM TO 6:00 PM","street_address1":"National Road","id":"273","latlong":"15.762301799397141, 119.9109435081482","meta":{"href":"https:\/\/www.mlepay.com\/api\/v1\/branches\/ln-cenluz-f-sta_cruz_2-273"},"status":"ACTIVE","ho":"Luzon\/NCR","bc_kp":"SCRUZ2","tin_number":"004265130918","zip_code":"2213"},{"phone_number":"09479991256","city":"Makati City","node_access_lock":"MLB-PH-LN-NCRBAT-A-HTOWER","code":"ln-ncrbat-a-heart_tower-920","province":"Metro Manila","name":"M Lhuillier Heart Tower","area":"Area A","official_branch_address":"unit 202 heart tower bldg 108 valero st salcedo village makati city","country":"PH","region":{"code":"ln-ncrbat","meta":{"href":"https:\/\/www.mlepay.com\/api\/v1\/regions\/ln-ncrbat"},"name":"NCR\/Batanes Region"},"business_hours":"NA","street_address1":"Unit 202 Heart Tower Condominium, Valero Street","id":"920","latlong":"14.560121, 121.018705","meta":{"href":"https:\/\/www.mlepay.com\/api\/v1\/branches\/ln-ncrbat-a-heart_tower-920"},"status":"ACTIVE","ho":"Luzon\/NCR","bc_kp":"HTOWER","tin_number":"002-394-238-731","zip_code":"1209"},{"phone_number":"","city":"Makati City","node_access_lock":"MLB-PH-LN-NCRBAT-A-PEMBO","code":"ln-ncrbat-a-pembo-172","province":"Metro Manila","name":"M Lhuillier Pembo","area":"Area A","official_branch_address":"","country":"PH","region":{"code":"ln-ncrbat","meta":{"href":"https:\/\/www.mlepay.com\/api\/v1\/regions\/ln-ncrbat"},"name":"NCR\/Batanes Region"},"business_hours":"8:00 AM TO 5:30 PM","street_address1":"Sampaguita corner, Bridal St., Pembo, Makati City","id":"172","latlong":"14.543314199611839, 121.05853199958801","meta":{"href":"https:\/\/www.mlepay.com\/api\/v1\/branches\/ln-ncrbat-a-pembo-172"},"status":"ACTIVE","ho":"Luzon\/NCR","bc_kp":"PEMBO","tin_number":"","zip_code":"1200"},{"phone_number":"823-3368","city":"Taguig City","node_access_lock":"MLB-PH-LN-NCRBAT-B-BONIGC","code":"ln-ncrbat-b-bonifacio_global_city-423","province":"Metro Manila","name":"M Lhuillier Bonifacio Global City","area":"Area B","official_branch_address":"GF The Grand Hamptons Tower 2 1st Ave Cor 31st Ave Bonifacio Global City Taguig","country":"PH","region":{"code":"ln-ncrbat","meta":{"href":"https:\/\/www.mlepay.com\/api\/v1\/regions\/ln-ncrbat"},"name":"NCR\/Batanes Region"},"business_hours":"NA","street_address1":"G\/F Grand Hamptons Tower 2, 1st Avenue Cor. 31st St. Bonifacio","id":"423","latlong":"14.554695, 121.044047","meta":{"href":"https:\/\/www.mlepay.com\/api\/v1\/branches\/ln-ncrbat-b-bonifacio_global_city-423"},"status":"ACTIVE","ho":"Luzon\/NCR","bc_kp":"BONIGC","tin_number":"002438380000","zip_code":""},{"phone_number":"028566012","city":"Taguig City","node_access_lock":"MLB-PH-LN-NCRBAT-B-MARKT2","code":"ln-ncrbat-b-market_market_mall-68","province":"Metro Manila","name":"M Lhuillier Market Market Mall","area":"Area B","official_branch_address":"165 g\/f market market mall taguig","country":"PH","region":{"code":"ln-ncrbat","meta":{"href":"https:\/\/www.mlepay.com\/api\/v1\/regions\/ln-ncrbat"},"name":"NCR\/Batanes Region"},"business_hours":"NA","street_address1":"165 A, G F Market-market Mall, fort Bonifacio, Global City","id":"68","latlong":"14.549548, 121.056075","meta":{"href":"https:\/\/www.mlepay.com\/api\/v1\/branches\/ln-ncrbat-b-market_market_mall-68"},"status":"ACTIVE","ho":"Luzon\/NCR","bc_kp":"MARKT2","tin_number":"004-265-130","zip_code":"1634"},{"phone_number":"02-853-82-63","city":"Paranaque City","node_access_lock":"MLB-PH-LN-NCRBAT-C-BACLA2","code":"ln-ncrbat-c-baclaran_2-471","province":"Metro Manila","name":"M Lhuillier Baclaran 2","area":"Area C","official_branch_address":"264 QUIRINO AVENUE BACLARAN PARANAQUE CITY","country":"PH","region":{"code":"ln-ncrbat","meta":{"href":"https:\/\/www.mlepay.com\/api\/v1\/regions\/ln-ncrbat"},"name":"NCR\/Batanes Region"},"business_hours":"7:00 AM TO 7:00 PM","street_address1":"#264 Quirino Ave.","id":"471","latlong":"14.529601249634498, 120.99706381559372","meta":{"href":"https:\/\/www.mlepay.com\/api\/v1\/branches\/ln-ncrbat-c-baclaran_2-471"},"status":"ACTIVE","ho":"Luzon\/NCR","bc_kp":"BACLA2","tin_number":"004-265-130-134","zip_code":"1700"},{"phone_number":"09479991889","city":"Manila City","node_access_lock":"MLB-PH-LN-NCRPAL-C-GNLUNA","code":"ln-ncrpal-c-general_luna-897","province":"Metro Manila","name":"M Lhuillier General Luna","area":"Area C","official_branch_address":"1216 GENERAL LUNA ST ERMITA MANILA","country":"PH","region":{"code":"ln-ncrpal","meta":{"href":"https:\/\/www.mlepay.com\/api\/v1\/regions\/ln-ncrpal"},"name":"NCR\/Palawan Region"},"business_hours":"7:00 AM TO 7:30 PM","street_address1":"1216 General Luna St. Brgy. 676 Zone 073","id":"897","latlong":"14.581465278801838, 120.98672389984131","meta":{"href":"https:\/\/www.mlepay.com\/api\/v1\/branches\/ln-ncrpal-c-general_luna-897"},"status":"ACTIVE","ho":"Luzon\/NCR","bc_kp":"GNLUNA","tin_number":"002-394-238-790 \/ 004-265-130-099","zip_code":"1000"},{"phone_number":"4982890","city":"Manila City","node_access_lock":"MLB-PH-LN-NCRPAL-C-PACO","code":"ln-ncrpal-c-paco-188","province":"Metro Manila","name":"M Lhuillier Paco","area":"Area C","official_branch_address":"1112 PEDRO GIL ST BRGY 687 PACO MANILA","country":"PH","region":{"code":"ln-ncrpal","meta":{"href":"https:\/\/www.mlepay.com\/api\/v1\/regions\/ln-ncrpal"},"name":"NCR\/Palawan Region"},"business_hours":"7:00 AM TO 7:30 PM","street_address1":"1112 Pedro Gil St.","id":"188","latlong":"14.577644203273366, 120.99252820014954","meta":{"href":"https:\/\/www.mlepay.com\/api\/v1\/branches\/ln-ncrpal-c-paco-188"},"status":"ACTIVE","ho":"Luzon\/NCR","bc_kp":"PACO","tin_number":"004-265-130-561","zip_code":"1007"},{"phone_number":"02-5615839\/ 02-5615915","city":"Manila City","node_access_lock":"MLB-PH-LN-NCRPAL-C-PDGIL2","code":"ln-ncrpal-c-pedro_gil_2-27","province":"Metro Manila","name":"M Lhuillier Pedro Gil 2","area":"Area C","official_branch_address":"1634 PEDRO GIL ST PACO MANILA","country":"PH","region":{"code":"ln-ncrpal","meta":{"href":"https:\/\/www.mlepay.com\/api\/v1\/regions\/ln-ncrpal"},"name":"NCR\/Palawan Region"},"business_hours":"7:00 AM TO 7:30 PM","street_address1":"#1634 Pedro Gil Street Paco ","id":"27","latlong":"14.578612457621901, 121.00137680768967","meta":{"href":"https:\/\/www.mlepay.com\/api\/v1\/branches\/ln-ncrpal-c-pedro_gil_2-27"},"status":"ACTIVE","ho":"Luzon\/NCR","bc_kp":"PDGIL2","tin_number":"004-265-130-138","zip_code":"1007"},{"phone_number":"02 5255220","city":"Manila City","node_access_lock":"MLB-PH-LN-NCRPAL-C-PDGIL3","code":"ln-ncrpal-c-pedro_gil_3-70","province":"Metro Manila","name":"M Lhuillier Pedro Gil 3","area":"Area C","official_branch_address":"1580 Pedro Gil Arcade, Ermita Manila","country":"PH","region":{"code":"ln-ncrpal","meta":{"href":"https:\/\/www.mlepay.com\/api\/v1\/regions\/ln-ncrpal"},"name":"NCR\/Palawan Region"},"business_hours":"7:00 AM TO 7:00 AM","street_address1":"Pedro Gil Arcade, 1580 Taft Ave., Corner Pedro Gil","id":"70","latlong":"14.576245029284507, 120.988604798913","meta":{"href":"https:\/\/www.mlepay.com\/api\/v1\/branches\/ln-ncrpal-c-pedro_gil_3-70"},"status":"ACTIVE","ho":"Luzon\/NCR","bc_kp":"PDGIL3","tin_number":"004-265-130-317","zip_code":"1000"},{"phone_number":"7361492","city":"Manila City","node_access_lock":"MLB-PH-LN-NCRPAL-C-SAMPLC","code":"ln-ncrpal-c-sampaloc-510","province":"Metro Manila","name":"M Lhuillier Sampaloc","area":"Area C","official_branch_address":"473 BUSTILLOS ST SAMPALOC MANILA","country":"PH","region":{"code":"ln-ncrpal","meta":{"href":"https:\/\/www.mlepay.com\/api\/v1\/regions\/ln-ncrpal"},"name":"NCR\/Palawan Region"},"business_hours":"6:00 AM TO 10:30 PM","street_address1":"473 Bustillos St. Sampaloc Manila","id":"510","latlong":"14.60313928240799, 120.99294662475586","meta":{"href":"https:\/\/www.mlepay.com\/api\/v1\/branches\/ln-ncrpal-c-sampaloc-510"},"status":"ACTIVE","ho":"Luzon\/NCR","bc_kp":"SAMPLC","tin_number":"002-394-238-014","zip_code":"1008"},{"phone_number":"","city":"Manila City","node_access_lock":"MLB-PH-LN-NCRPAL-C-STMESA","code":"ln-ncrpal-c-sta_mesa_1-564","province":"Metro Manila","name":"M Lhuillier Sta. Mesa 1","area":"Area C","official_branch_address":"","country":"PH","region":{"code":"ln-ncrpal","meta":{"href":"https:\/\/www.mlepay.com\/api\/v1\/regions\/ln-ncrpal"},"name":"NCR\/Palawan Region"},"business_hours":"7:00 AM TO 9:30 PM","street_address1":"3217 CASAJE BLDG R MAGSAYSAY BLVD COR PUREZA ST STA MESA MANILA","id":"564","latlong":"14.601594918063878, 121.00426822900772","meta":{"href":"https:\/\/www.mlepay.com\/api\/v1\/branches\/ln-ncrpal-c-sta_mesa_1-564"},"status":"ACTIVE","ho":"Luzon\/NCR","bc_kp":"STMESA","tin_number":"002-394-238-020","zip_code":"1016"},{"phone_number":"0324288960","city":"Quezon City","node_access_lock":"MLB-PH-LN-NCRRIZ-A-BATASN","code":"ln-ncrriz-a-batasan_hills-526","province":"Metro Manila","name":"M Lhuillier Batasan Hills","area":"Area A","official_branch_address":"52 a constitutional rd sitio 1 kaliwa batasan hills quezon city","country":"PH","region":{"code":"ln-ncrriz","meta":{"href":"https:\/\/www.mlepay.com\/api\/v1\/regions\/ln-ncrriz"},"name":"NCR\/Rizal Region"},"business_hours":"7:00 AM TO 7:00 PM","street_address1":"52 A CONSTITUTIONAL ST SITIO 1 KALIWA BRGY BATASAN HILLS QUEZON CITY","id":"526","latlong":"14.688386909667576, 121.09873294830322","meta":{"href":"https:\/\/www.mlepay.com\/api\/v1\/branches\/ln-ncrriz-a-batasan_hills-526"},"status":"ACTIVE","ho":"Luzon\/NCR","bc_kp":"BATASN","tin_number":"004-265-130-036","zip_code":"1100"},{"phone_number":"4274153","city":"Quezon City","node_access_lock":"MLB-PH-LN-NCRRIZ-A-DNANTO","code":"ln-ncrriz-a-don_antonio-332","province":"Metro Manila","name":"M Lhuillier Don Antonio","area":"Area A","official_branch_address":"lt24 blk6 holy spirit drive, holy spirit qc","country":"PH","region":{"code":"ln-ncrriz","meta":{"href":"https:\/\/www.mlepay.com\/api\/v1\/regions\/ln-ncrriz"},"name":"NCR\/Rizal Region"},"business_hours":"9:00 AM TO 5:00 PM","street_address1":"Lot 24 Block 6 Holy Spirit Dr. Holy Spirit 2 Quezon City","id":"332","latlong":"13.528550709129464, 121.14132531249993","meta":{"href":"https:\/\/www.mlepay.com\/api\/v1\/branches\/ln-ncrriz-a-don_antonio-332"},"status":"ACTIVE","ho":"Luzon\/NCR","bc_kp":"DNANTO","tin_number":"002438380175","zip_code":"1127"},{"phone_number":"029483619","city":"Montalban","node_access_lock":"MLB-PH-LN-NCRRIZ-C-MONTA1","code":"ln-ncrriz-c-montalban_1-532","province":"Rizal","name":"M Lhuillier Montalban 1","area":"Area C","official_branch_address":"89 jp rizal st. manggahan montalban rizal","country":"PH","region":{"code":"ln-ncrriz","meta":{"href":"https:\/\/www.mlepay.com\/api\/v1\/regions\/ln-ncrriz"},"name":"NCR\/Rizal Region"},"business_hours":"7:00 AM TO 7:30 PM","street_address1":"89 JP RIZAL ST. MANGGAHAN MONTALBAN RIZAL","id":"532","latlong":"14.72633672148312, 121.14290356636047","meta":{"href":"https:\/\/www.mlepay.com\/api\/v1\/branches\/ln-ncrriz-c-montalban_1-532"},"status":"ACTIVE","ho":"Luzon\/NCR","bc_kp":"MONTA1","tin_number":"002294328111","zip_code":"1860"},{"phone_number":"","city":"Antipolo City","node_access_lock":"MLB-PH-LN-NCRRIZ-D-492","code":"ln-ncrriz-d-492-492","province":"Rizal","name":"M Lhuillier Antipolo Triangle Mall","area":"Area D","official_branch_address":"","country":"PH","region":{"code":"ln-ncrriz","meta":{"href":"https:\/\/www.mlepay.com\/api\/v1\/regions\/ln-ncrriz"},"name":"NCR\/Rizal Region"},"business_hours":"10:00 AM TO 8:00 PM","street_address1":"Sen. Lorenzo Sumulong Memorial Circle, Antipolo Triangle Mall, San Jose, Antipolo City","id":"492","latlong":"14.5822177182962, 121.18216708302498","meta":{"href":"https:\/\/www.mlepay.com\/api\/v1\/branches\/ln-ncrriz-d-492-492"},"status":"ACTIVE","ho":"Luzon\/NCR","bc_kp":"492","tin_number":"","zip_code":"1870"},{"phone_number":"","city":"Antipolo City","node_access_lock":"MLB-PH-LN-NCRRIZ-D-498","code":"ln-ncrriz-d-498-498","province":"Rizal","name":"M Lhuillier Cogeo 3","area":"Area D","official_branch_address":"","country":"PH","region":{"code":"ln-ncrriz","meta":{"href":"https:\/\/www.mlepay.com\/api\/v1\/regions\/ln-ncrriz"},"name":"NCR\/Rizal Region"},"business_hours":"7:00 AM TO 7:00 PM","street_address1":"2\/F Cmvc Plaza Gate-2, Bagong Nayon, Cogeo, Antipolo City","id":"498","latlong":"14.621401671136018, 121.16894781589508","meta":{"href":"https:\/\/www.mlepay.com\/api\/v1\/branches\/ln-ncrriz-d-498-498"},"status":"ACTIVE","ho":"Luzon\/NCR","bc_kp":"498","tin_number":"","zip_code":"1820"},{"phone_number":"","city":"Pasig","node_access_lock":"MLB-PH-LN-NCRRIZ-E-834","code":"ln-ncrriz-e-834-834","province":"Metro Manila","name":"M Lhuillier Novo","area":"Area E","official_branch_address":"","country":"PH","region":{"code":"ln-ncrriz","meta":{"href":"https:\/\/www.mlepay.com\/api\/v1\/regions\/ln-ncrriz"},"name":"NCR\/Rizal Region"},"business_hours":"9:00 AM TO 8:00 PM","street_address1":"Stall 6, Novo Dept. Store, Pinagbuhatan, Pasig City","id":"834","latlong":"14.54967478648659, 121.09949469566345","meta":{"href":"https:\/\/www.mlepay.com\/api\/v1\/branches\/ln-ncrriz-e-834-834"},"status":"ACTIVE","ho":"Luzon\/NCR","bc_kp":"834","tin_number":"","zip_code":"1602"},{"phone_number":"633-5550","city":"Pasig City","node_access_lock":"MLB-PH-LN-NCRRIZ-E-MANGHN","code":"ln-ncrriz-e-manggahan-42","province":"Metro Manila","name":"M Lhuillier Manggahan","area":"Area E","official_branch_address":"GF U10 MANGGAHAN COMMRCL A. ROD PASIG CITY","country":"PH","region":{"code":"ln-ncrriz","meta":{"href":"https:\/\/www.mlepay.com\/api\/v1\/regions\/ln-ncrriz"},"name":"NCR\/Rizal Region"},"business_hours":"8:00 AM TO 7:00 PM","street_address1":"GRD FLR UNIT 10 MANGGAHAN COMMERCIAL AMANG RODRIGUEZ AVE MANGGAHAN PASIG CITY","id":"42","latlong":"14.700508321287574, 121.058349609375","meta":{"href":"https:\/\/www.mlepay.com\/api\/v1\/branches\/ln-ncrriz-e-manggahan-42"},"status":"ACTIVE","ho":"Luzon\/NCR","bc_kp":"MANGHN","tin_number":"002-438-380-226","zip_code":"1600"},{"phone_number":"02-6405342","city":"Pasig City","node_access_lock":"MLB-PH-LN-NCRRIZ-E-PASIG2","code":"ln-ncrriz-e-pasig-857","province":"Metro Manila","name":"M Lhuillier Pasig","area":"Area E","official_branch_address":"U-5 MAGDALENA ARCADE URBANO VELASCO AVE., PINAGBUHATAN PASIG CITY","country":"PH","region":{"code":"ln-ncrriz","meta":{"href":"https:\/\/www.mlepay.com\/api\/v1\/regions\/ln-ncrriz"},"name":"NCR\/Rizal Region"},"business_hours":"NA","street_address1":"SAN AGUSTIN\/ URBANO VELASCO AVE., PINAGBUHATAN PASIG CITY","id":"857","latlong":"14.557624007392466, 121.08502149581909","meta":{"href":"https:\/\/www.mlepay.com\/api\/v1\/branches\/ln-ncrriz-e-pasig-857"},"status":"ACTIVE","ho":"Luzon\/NCR","bc_kp":"PASIG2","tin_number":"002-394-238-029","zip_code":"1602"},{"phone_number":"(02) 656-9027","city":"Pasig City","node_access_lock":"MLB-PH-LN-NCRRIZ-E-RIVERS","code":"ln-ncrriz-e-riverside_pasig-92","province":"Metro Manila","name":"M Lhuillier Riverside Pasig","area":"Area E","official_branch_address":"UNIT 5 RIVERSIDE ARCADE, ORTIGAS AVE., EXTN., COR. RIVERSIDE DRIVE, STA. LUCIA, PASIG CITY","country":"PH","region":{"code":"ln-ncrriz","meta":{"href":"https:\/\/www.mlepay.com\/api\/v1\/regions\/ln-ncrriz"},"name":"NCR\/Rizal Region"},"business_hours":"8:00 AM TO 6:00 PM","street_address1":"Unit 5 Riverside Arcade Ortigas Ave. Ext. Cor, Riverside Drive, Sta. Lucia, Pasig City","id":"92","latlong":"14.588638701799432, 121.1045654118061","meta":{"href":"https:\/\/www.mlepay.com\/api\/v1\/branches\/ln-ncrriz-e-riverside_pasig-92"},"status":"ACTIVE","ho":"Luzon\/NCR","bc_kp":"RIVERS","tin_number":"004-265-130-313","zip_code":"1608"},{"phone_number":"416-6400","city":"Quezon City","node_access_lock":"MLB-PH-LN-NCRRIZ-F-AMORAN","code":"ln-ncrriz-f-amoranto-55","province":"Metro Manila","name":"M Lhuillier Amoranto","area":"Area F","official_branch_address":"514A NS AMORANTO AVE BRGY ST PETER, QUEZON CITY","country":"PH","region":{"code":"ln-ncrriz","meta":{"href":"https:\/\/www.mlepay.com\/api\/v1\/regions\/ln-ncrriz"},"name":"NCR\/Rizal Region"},"business_hours":"7:00 AM TO 5:00 PM","street_address1":"514 NS Amoranto Ave., Formerly Retiro St Laloma Quezon City","id":"55","latlong":"14.63198964702138, 121.00055906921625","meta":{"href":"https:\/\/www.mlepay.com\/api\/v1\/branches\/ln-ncrriz-f-amoranto-55"},"status":"ACTIVE","ho":"Luzon\/NCR","bc_kp":"AMORAN","tin_number":"004265130139","zip_code":"1100"},{"phone_number":"(02)531-7580","city":"Mandaluyong City","node_access_lock":"MLB-PH-LN-NCRRIZ-F-FABEL1","code":"ln-ncrriz-f-fabella_1-553","province":"Metro Manila","name":"M Lhuillier Fabella 1","area":"Area F","official_branch_address":"433 -B MARTINEZ ST. COR. SAN RAFAEL ST MANDALUYONG CITY","country":"PH","region":{"code":"ln-ncrriz","meta":{"href":"https:\/\/www.mlepay.com\/api\/v1\/regions\/ln-ncrriz"},"name":"NCR\/Rizal Region"},"business_hours":"7:00 AM TO 7:00 PM","street_address1":"#433 Martinez cor. Fabella Sts.","id":"553","latlong":"14.579056347602915, 121.03563129901886","meta":{"href":"https:\/\/www.mlepay.com\/api\/v1\/branches\/ln-ncrriz-f-fabella_1-553"},"status":"ACTIVE","ho":"Luzon\/NCR","bc_kp":"FABEL1","tin_number":"002-394-238-026","zip_code":"1550"},{"phone_number":"02-5352756","city":"Mandaluyong City","node_access_lock":"MLB-PH-LN-NCRRIZ-F-FABEL2","code":"ln-ncrriz-f-fabella_2-554","province":"Metro Manila","name":"M Lhuillier Fabella 2","area":"Area F","official_branch_address":"535 NUEVE DE FEBRERO ST., BRGY PLEASANT HILLS MANDALUYONG CITY","country":"PH","region":{"code":"ln-ncrriz","meta":{"href":"https:\/\/www.mlepay.com\/api\/v1\/regions\/ln-ncrriz"},"name":"NCR\/Rizal Region"},"business_hours":"8:00 AM TO 6:00 PM","street_address1":"535 9 DE PEBRERO, PLEASANT HILLS, MANDALUYONG CITY","id":"554","latlong":"14.588048171914693, 121.03780388832092","meta":{"href":"https:\/\/www.mlepay.com\/api\/v1\/branches\/ln-ncrriz-f-fabella_2-554"},"status":"ACTIVE","ho":"Luzon\/NCR","bc_kp":"FABEL2","tin_number":"002-394-238-025","zip_code":"1550"},{"phone_number":"414-7871","city":"Quezon City","node_access_lock":"MLB-PH-LN-NCRRIZ-F-FRISCO","code":"ln-ncrriz-f-frisco-960","province":"Metro Manila","name":"M Lhuillier Frisco","area":"Area F","official_branch_address":"164 roosevelt ave sfdm qc","country":"PH","region":{"code":"ln-ncrriz","meta":{"href":"https:\/\/www.mlepay.com\/api\/v1\/regions\/ln-ncrriz"},"name":"NCR\/Rizal Region"},"business_hours":"7:00 AM TO 6:00 PM","street_address1":"164 Roosevelt Ave., Del Monte, QC","id":"960","latlong":"14.64047325840585, 121.01648300886154","meta":{"href":"https:\/\/www.mlepay.com\/api\/v1\/branches\/ln-ncrriz-f-frisco-960"},"status":"ACTIVE","ho":"Luzon\/NCR","bc_kp":"FRISCO","tin_number":"002-394-238-915","zip_code":"1105"},{"phone_number":"02 716-3484","city":"Quezon City","node_access_lock":"MLB-PH-LN-NCRRIZ-F-GALAS","code":"ln-ncrriz-f-galas-555","province":"Metro Manila","name":"M Lhuillier Galas","area":"Area F","official_branch_address":"23 E Luzon Ave Galas Quezon City","country":"PH","region":{"code":"ln-ncrriz","meta":{"href":"https:\/\/www.mlepay.com\/api\/v1\/regions\/ln-ncrriz"},"name":"NCR\/Rizal Region"},"business_hours":"7:00 AM TO 8:00 PM","street_address1":"#23 E- Luzon Ave. Bgy San Isidro Galas Quezon  City","id":"555","latlong":"14.612441577004605, 121.00906267762184","meta":{"href":"https:\/\/www.mlepay.com\/api\/v1\/branches\/ln-ncrriz-f-galas-555"},"status":"ACTIVE","ho":"Luzon\/NCR","bc_kp":"GALAS","tin_number":"002-394-238-040 vat","zip_code":"1113"},{"phone_number":"025841936","city":"San Juan","node_access_lock":"MLB-PH-LN-NCRRIZ-F-GREENH","code":"ln-ncrriz-f-greenhills-140","province":"Metro Manila","name":"M Lhuillier Greenhills","area":"Area F","official_branch_address":"SUITE 105 STATE CONDOMINIUM IV ORTIGAS AVE. GREENHILLS, SAN JUAN","country":"PH","region":{"code":"ln-ncrriz","meta":{"href":"https:\/\/www.mlepay.com\/api\/v1\/regions\/ln-ncrriz"},"name":"NCR\/Rizal Region"},"business_hours":"8:00 AM TO 6:00 PM","street_address1":"Suite 105 State condo 4, Ortigas Ave., Greenhills, San Juan","id":"140","latlong":"14.601223754082081, 121.0465682324218","meta":{"href":"https:\/\/www.mlepay.com\/api\/v1\/branches\/ln-ncrriz-f-greenhills-140"},"status":"ACTIVE","ho":"Luzon\/NCR","bc_kp":"GREENH","tin_number":"004265130432","zip_code":"1502"},{"phone_number":"(02)7275753","city":"San Juan","node_access_lock":"MLB-PH-LN-NCRRIZ-F-SJUAN3","code":"ln-ncrriz-f-n_domingo-972","province":"Metro Manila","name":"M Lhuillier N. Domingo","area":"Area F","official_branch_address":"226 N DOMINGO  ST, CORAZON DE JESUS , SAN JUAN METRO MANIL","country":"PH","region":{"code":"ln-ncrriz","meta":{"href":"https:\/\/www.mlepay.com\/api\/v1\/regions\/ln-ncrriz"},"name":"NCR\/Rizal Region"},"business_hours":"8:00 AM TO 6:00 PM","street_address1":"226 N. Domingo E. M. Bldg. Corazon De Jesus San Juan, Metro Manila","id":"972","latlong":"14.608631421343729, 121.02853417396545","meta":{"href":"https:\/\/www.mlepay.com\/api\/v1\/branches\/ln-ncrriz-f-n_domingo-972"},"status":"ACTIVE","ho":"Luzon\/NCR","bc_kp":"SJUAN3","tin_number":"002-394-238-977","zip_code":"1500"},{"phone_number":"02-7263479","city":"San Juan","node_access_lock":"MLB-PH-LN-NCRRIZ-F-SJUAN1","code":"ln-ncrriz-f-san_juan_1-562","province":"Metro Manila","name":"M Lhuillier San Juan 1","area":"Area F","official_branch_address":"78 B F BLUMENTRITT BRGY KABAYANAN SAN JUAN CITY","country":"PH","region":{"code":"ln-ncrriz","meta":{"href":"https:\/\/www.mlepay.com\/api\/v1\/regions\/ln-ncrriz"},"name":"NCR\/Rizal Region"},"business_hours":"7:00 AM TO 6:00 PM","street_address1":"78 B F BLUMENTRITT ST KABAYANAN SAN JUAN CITY","id":"562","latlong":"14.595863804001665, 121.02863743901253","meta":{"href":"https:\/\/www.mlepay.com\/api\/v1\/branches\/ln-ncrriz-f-san_juan_1-562"},"status":"ACTIVE","ho":"Luzon\/NCR","bc_kp":"SJUAN1","tin_number":"002-394-238-295","zip_code":"1500"},{"phone_number":"7238313","city":"San Juan","node_access_lock":"MLB-PH-LN-NCRRIZ-F-SJUAN2","code":"ln-ncrriz-f-san_juan_2-563","province":"Metro Manila","name":"M Lhuillier San Juan 2","area":"Area F","official_branch_address":"157 F. BLUMENTRITT KABAYANAN SAN JUAN CITY","country":"PH","region":{"code":"ln-ncrriz","meta":{"href":"https:\/\/www.mlepay.com\/api\/v1\/regions\/ln-ncrriz"},"name":"NCR\/Rizal Region"},"business_hours":"7:00 AM TO 7:00 PM","street_address1":"L.M. Bldg. 157 F. Blumentritt St.  Pedro Cruz San Juan City, Manila","id":"563","latlong":"14.604174908893306, 121.02418094873428","meta":{"href":"https:\/\/www.mlepay.com\/api\/v1\/branches\/ln-ncrriz-f-san_juan_2-563"},"status":"ACTIVE","ho":"Luzon\/NCR","bc_kp":"SJUAN2","tin_number":"002394238074","zip_code":"1500"},{"phone_number":"02-431-93-00","city":"Quezon City","node_access_lock":"MLB-PH-LN-NCRRIZ-F-STMES2","code":"ln-ncrriz-f-sta_mesa_2-49","province":"Metro Manila","name":"M Lhuillier Sta. Mesa 2","area":"Area F","official_branch_address":"7 D AURORA BLVD BRGY DONA IMELDA QUEZON CITY ","country":"PH","region":{"code":"ln-ncrriz","meta":{"href":"https:\/\/www.mlepay.com\/api\/v1\/regions\/ln-ncrriz"},"name":"NCR\/Rizal Region"},"business_hours":"8:00 AM TO 6:00 PM","street_address1":"7-D AURORA BLVD DONA IMELDA, QUEZON CITY","id":"49","latlong":"14.605573905348054, 121.01824522018433","meta":{"href":"https:\/\/www.mlepay.com\/api\/v1\/branches\/ln-ncrriz-f-sta_mesa_2-49"},"status":"ACTIVE","ho":"Luzon\/NCR","bc_kp":"STMES2","tin_number":"004-265-130-195","zip_code":"1000"},{"phone_number":"044-958-0869","city":"General Tinio","node_access_lock":"MLB-PH-LN-NOREASLUZ-C-GENTIN","code":"ln-noreasluz-c-general_tinio-348","province":"Nueva Ecija","name":"M Lhuillier General Tinio","area":"Area C","official_branch_address":"POBLACION EAST, GENERALTINIO,NUEVA ECIJA","country":"PH","region":{"code":"ln-noreasluz","meta":{"href":"https:\/\/www.mlepay.com\/api\/v1\/regions\/ln-noreasluz"},"name":"North Eastern Luzon Region"},"business_hours":"7:00 AM TO 6:00 PM","street_address1":"POBLACION EAST, GENERAL TINIO, NUEVA ECIJA","id":"348","latlong":"15.348553412458813, 121.04611225688927","meta":{"href":"https:\/\/www.mlepay.com\/api\/v1\/branches\/ln-noreasluz-c-general_tinio-348"},"status":"ACTIVE","ho":"Luzon\/NCR","bc_kp":"GENTIN","tin_number":"02-438-380-200","zip_code":"3104"},{"phone_number":"09479991516","city":"Hagonoy","node_access_lock":"MLB-PH-LN-NOREASLUZ-F-HAGONY","code":"ln-noreasluz-f-hagonoy-136","province":"Bulacan","name":"M Lhuillier Hagonoy","area":"Area F","official_branch_address":"PUROK 7 STO NINO HAGONOY BULACAN","country":"PH","region":{"code":"ln-noreasluz","meta":{"href":"https:\/\/www.mlepay.com\/api\/v1\/regions\/ln-noreasluz"},"name":"North Eastern Luzon Region"},"business_hours":"7:00 AM TO 7:00 PM","street_address1":"A & A GAZEBO Bldg., Main Road, Sto. Nino","id":"136","latlong":"14.837444808196146, 120.73610365390778","meta":{"href":"https:\/\/www.mlepay.com\/api\/v1\/branches\/ln-noreasluz-f-hagonoy-136"},"status":"ACTIVE","ho":"Luzon\/NCR","bc_kp":"HAGONY","tin_number":"004-265-130-455","zip_code":"3002"},{"phone_number":"044-798-9983","city":"Baliuag","node_access_lock":"MLB-PH-LN-NOREASLUZ-F-BALIUA","code":"ln-noreasluz-f-poblacion-181","province":"Bulacan","name":"M Lhuillier Poblacion","area":"Area F","official_branch_address":"SAC BLDG. CAGAYAN VALLEY RD., POBLACION, BALIUAG BULACAN","country":"PH","region":{"code":"ln-noreasluz","meta":{"href":"https:\/\/www.mlepay.com\/api\/v1\/regions\/ln-noreasluz"},"name":"North Eastern Luzon Region"},"business_hours":"7:00 AM TO 7:00 PM","street_address1":"Sac Bldg. Cagayan Valley Road, Poblacion, Baliuag, Bulacan","id":"181","latlong":"14.95599015396959, 120.87806224822998","meta":{"href":"https:\/\/www.mlepay.com\/api\/v1\/branches\/ln-noreasluz-f-poblacion-181"},"status":"ACTIVE","ho":"Luzon\/NCR","bc_kp":"BALIUA","tin_number":"004-265-130-527","zip_code":"3006"},{"phone_number":"09479992661","city":"Tuguegarao City","node_access_lock":"MLB-PH-LN-NORLUZ-B-CARIG","code":"ln-norluz-b-carig-368","province":"Cagayan Valley","name":"M Lhuillier Carig","area":"Area B","official_branch_address":"135 NATIONAL HIGHWAY CARIG SUR TUGUEGARAO CITY CAGAYAN","country":"PH","region":{"code":"ln-norluz","meta":{"href":"https:\/\/www.mlepay.com\/api\/v1\/regions\/ln-norluz"},"name":"Northern Luzon Region"},"business_hours":"8:00 AM TO 6:00 PM","street_address1":"#135 National Highway Brgy. Carig Sur, Tuguegarao City, Cagayan (Infront of DEPED Regional Office)","id":"368","latlong":"16.75197874788822, 121.53683312499993","meta":{"href":"https:\/\/www.mlepay.com\/api\/v1\/branches\/ln-norluz-b-carig-368"},"status":"ACTIVE","ho":"Luzon\/NCR","bc_kp":"CARIG","tin_number":"002-438-380-183","zip_code":"3500"},{"phone_number":"639479991525","city":"Iguig","node_access_lock":"MLB-PH-LN-NORLUZ-B-IGUIG","code":"ln-norluz-b-iguig-96","province":"Cagayan Valley","name":"M Lhuillier Iguig","area":"Area B","official_branch_address":"MAHARLIKA HIGHWAY AJAT IGUIG CAGAYAN VALLEY","country":"PH","region":{"code":"ln-norluz","meta":{"href":"https:\/\/www.mlepay.com\/api\/v1\/regions\/ln-norluz"},"name":"Northern Luzon Region"},"business_hours":"NA","street_address1":"Maharlika Hi-way, Ajat","id":"96","latlong":"17.752130143031415, 121.73631548881531","meta":{"href":"https:\/\/www.mlepay.com\/api\/v1\/branches\/ln-norluz-b-iguig-96"},"status":"ACTIVE","ho":"Luzon\/NCR","bc_kp":"IGUIG","tin_number":"004-265-130-319","zip_code":"3504"},{"phone_number":"09479991583","city":"Delfin Albano","node_access_lock":"MLB-PH-LN-NORLUZ-C-DELFIN","code":"ln-norluz-c-ml_delfin_albano-0","province":"Isabela","name":"M Lhuillier Delfin Albano","area":"Area C","official_branch_address":"San Antonio, Delfin Albano, Isabela","country":"PH","region":{"code":"ln-norluz","meta":{"href":"https:\/\/www.mlepay.com\/api\/v1\/regions\/ln-norluz"},"name":"Northern Luzon Region"},"business_hours":"8:00 AM TO 5:00 PM","street_address1":"San Antonio, Delfin Albano, Isabela","id":"395","latlong":"17.31393222192293, 121.79306030273438","meta":{"href":"https:\/\/www.mlepay.com\/api\/v1\/branches\/ln-norluz-c-ml_delfin_albano-0"},"status":"ACTIVE","ho":"Luzon\/NCR","bc_kp":"DELFIN","tin_number":"002-438-380-263","zip_code":"3326"},{"phone_number":"09479992598","city":"Bayombong","node_access_lock":"MLB-PH-LN-NORLUZ-F-BAYOM2","code":"ln-norluz-e-bayombong_2-313","province":"Nueva Vizcaya","name":"M Lhuillier Bayombong 2","area":"Area F","official_branch_address":"BRGY DMP, BAYOMBONG, NUEVA VIZCAYA","country":"PH","region":{"code":"ln-norluz","meta":{"href":"https:\/\/www.mlepay.com\/api\/v1\/regions\/ln-norluz"},"name":"Northern Luzon Region"},"business_hours":"7:30 AM TO 5:30 PM","street_address1":"Leonardo B. Perez Avenue","id":"313","latlong":"10.332483050053943, 123.92440795898438","meta":{"href":"https:\/\/www.mlepay.com\/api\/v1\/branches\/ln-norluz-e-bayombong_2-313"},"status":"ACTIVE","ho":"Luzon\/NCR","bc_kp":"BAYOM2","tin_number":"004-265-130-988","zip_code":"3700"},{"phone_number":"0783929821","city":"Solano","node_access_lock":"MLB-PH-LN-NORLUZ-F-SOLAN3","code":"ln-norluz-e-solano_3-219","province":"Nueva Vizcaya","name":"M Lhuillier Solano 3","area":"Area F","official_branch_address":"b aquino ave maharlika highway poblacion south solano nueva vizcaya","country":"PH","region":{"code":"ln-norluz","meta":{"href":"https:\/\/www.mlepay.com\/api\/v1\/regions\/ln-norluz"},"name":"Northern Luzon Region"},"business_hours":"12:00 AM TO 5:00 PM","street_address1":"B. Aquino Avenue, Maharlika Highway, Poblacion South, Solano, Nueva Vizcaya","id":"219","latlong":"16.517331541650673, 121.17982037628167","meta":{"href":"https:\/\/www.mlepay.com\/api\/v1\/branches\/ln-norluz-e-solano_3-219"},"status":"ACTIVE","ho":"Luzon\/NCR","bc_kp":"SOLAN3","tin_number":"004265130645","zip_code":"3709"},{"phone_number":"09479991163","city":"San Juan","node_access_lock":"MLB-PH-LN-NORWESLUZ-A-SJUANI","code":"ln-norwesluz-a-san_juan-208","province":"Ilocos Sur","name":"M Lhuillier San Juan","area":"Area A","official_branch_address":"MAHARLIKA HI-WAY BANNUAR, SAN JUAN 2731, ILOCOS SUR","country":"PH","region":{"code":"ln-norwesluz","meta":{"href":"https:\/\/www.mlepay.com\/api\/v1\/regions\/ln-norwesluz"},"name":"North Western Luzon Region"},"business_hours":"NA","street_address1":"Brgy. Brannuar, San Juan","id":"208","latlong":"16.671833588120705, 120.36305665969849","meta":{"href":"https:\/\/www.mlepay.com\/api\/v1\/branches\/ln-norwesluz-a-san_juan-208"},"status":"ACTIVE","ho":"Luzon\/NCR","bc_kp":"SJUANI","tin_number":"004-265-130-641","zip_code":"2731"},{"phone_number":"(046) 972-0766","city":"Silang","node_access_lock":"MLB-PH-LN-SOULUZ-B-GMA2","code":"ln-souluz-b-gma_2-613","province":"Cavite","name":"M Lhuillier Silang 1 GMA Branch","area":"Area B","official_branch_address":"DE GUZMAN BLDG, BLK 141 L3 GOV DR. SILANG CAVITE","country":"PH","region":{"code":"ln-souluz","meta":{"href":"https:\/\/www.mlepay.com\/api\/v1\/regions\/ln-souluz"},"name":"Southern Luzon Region"},"business_hours":"7:00 AM TO 10:00 PM","street_address1":"Blk. 141 lot 3 Governors Drive, Bulihan Silang","id":"613","latlong":"10.304231720047767, 123.91098082065582","meta":{"href":"https:\/\/www.mlepay.com\/api\/v1\/branches\/ln-souluz-b-gma_2-613"},"status":"ACTIVE","ho":"Luzon\/NCR","bc_kp":"GMA2","tin_number":"002-394-238-124","zip_code":"4117"},{"phone_number":"09479991552 \/ 02-520-8706","city":"General Mariano Alvarez","node_access_lock":"MLB-PH-LN-SOULUZ-B-MAGRA","code":"ln-souluz-b-magra-24","province":"Cavite","name":"M Lhuillier Magra GMA III BRANCH","area":"Area B","official_branch_address":"ML MAGRA BRANCH BLK 2 LOT 35 TEACHERS VILL, SAN GABRIEL GMA CAVITE","country":"PH","region":{"code":"ln-souluz","meta":{"href":"https:\/\/www.mlepay.com\/api\/v1\/regions\/ln-souluz"},"name":"Southern Luzon Region"},"business_hours":"7:00 AM TO 7:00 PM","street_address1":"Blk 2 Lot 35 Congressional Rd. Teacher's Village Brgy. San Gabriel","id":"24","latlong":"14.29418194517548, 121.00660443305969","meta":{"href":"https:\/\/www.mlepay.com\/api\/v1\/branches\/ln-souluz-b-magra-24"},"status":"ACTIVE","ho":"Luzon\/NCR","bc_kp":"MAGRA","tin_number":"002394238640","zip_code":"4117"},{"phone_number":"09479992128","city":"Maragondon","node_access_lock":"MLB-PH-LN-SOULUZ-C-MARAGO","code":"ln-souluz-c-maragondon-264","province":"Cavite","name":"M Lhuillier Maragondon","area":"Area C","official_branch_address":"CAPT REYES COR E. RIEGO DE DIOS ST POBLACION 1B MARAGONDON CAVITE ","country":"PH","region":{"code":"ln-souluz","meta":{"href":"https:\/\/www.mlepay.com\/api\/v1\/regions\/ln-souluz"},"name":"Southern Luzon Region"},"business_hours":"7:00 AM TO 6:00 PM","street_address1":"Captain Reyes cor. E Riego De Dios St. Poblacion 1B, Maragondon, Cavite","id":"264","latlong":"14.274190840649092, 120.73569059371948","meta":{"href":"https:\/\/www.mlepay.com\/api\/v1\/branches\/ln-souluz-c-maragondon-264"},"status":"ACTIVE","ho":"Luzon\/NCR","bc_kp":"MARAGO","tin_number":"004-265-130-906","zip_code":"4112"},{"phone_number":"043-7064384","city":"Taysan","node_access_lock":"MLB-PH-LN-SOUWESLUZ-A-TAYSAN","code":"ln-souwesluz-a-taysan-400","province":"Batangas","name":"M Lhuillier Taysan","area":"Area A","official_branch_address":"31 J.P. RIZAL ST. POB. WEST TAYSAN BATANGAS","country":"PH","region":{"code":"ln-souwesluz","meta":{"href":"https:\/\/www.mlepay.com\/api\/v1\/regions\/ln-souwesluz"},"name":"South Western Luzon Region"},"business_hours":"8:00 AM TO 5:00 PM","street_address1":"31 JP RIZAL ST POBLACION WEST TAYSAN BATANGAS","id":"400","latlong":"13.794775831870561, 121.1890321969986","meta":{"href":"https:\/\/www.mlepay.com\/api\/v1\/branches\/ln-souwesluz-a-taysan-400"},"status":"ACTIVE","ho":"Luzon\/NCR","bc_kp":"TAYSAN","tin_number":"002-438-380","zip_code":"4228"},{"phone_number":"(043) 740-2527","city":"Balayan","node_access_lock":"MLB-PH-LN-SOUWESLUZ-C-BALYN2","code":"ln-souwesluz-c-balayan_2-71","province":"Batangas","name":"M Lhuillier Balayan 2","area":"Area C","official_branch_address":"","country":"PH","region":{"code":"ln-souwesluz","meta":{"href":"https:\/\/www.mlepay.com\/api\/v1\/regions\/ln-souwesluz"},"name":"South Western Luzon Region"},"business_hours":"7:30 AM TO 5:30 PM","street_address1":"Plaza Mabini St.","id":"71","latlong":"13.937474852080875, 120.72900921106339","meta":{"href":"https:\/\/www.mlepay.com\/api\/v1\/branches\/ln-souwesluz-c-balayan_2-71"},"status":"ACTIVE","ho":"Luzon\/NCR","bc_kp":"BALYN2","tin_number":"004-265-130-290","zip_code":"4213"},{"phone_number":"043-284-4348","city":"Pinamalayan","node_access_lock":"MLB-PH-LN-SOUWESLUZ-D-PINAM2","code":"ln-souwesluz-d-pinamalayan_2-83","province":"Oriental Mindoro","name":"M Lhuillier Pinamalayan 2","area":"Area D","official_branch_address":"Mabini Pinamalayan Or. Mindoro","country":"PH","region":{"code":"ln-souwesluz","meta":{"href":"https:\/\/www.mlepay.com\/api\/v1\/regions\/ln-souwesluz"},"name":"South Western Luzon Region"},"business_hours":"7:30 AM TO 5:00 PM","street_address1":"Mabini St., Zone II","id":"83","latlong":"13.034714733439579, 121.48849815130234","meta":{"href":"https:\/\/www.mlepay.com\/api\/v1\/branches\/ln-souwesluz-d-pinamalayan_2-83"},"status":"ACTIVE","ho":"Luzon\/NCR","bc_kp":"PINAM2","tin_number":"004-265-130-280","zip_code":"5208"},{"phone_number":"043-289-3021","city":"Roxas","node_access_lock":"MLB-PH-LN-SOUWESLUZ-D-ROXASM","code":"ln-souwesluz-d-roxas-673","province":"Oriental Mindoro","name":"M Lhuillier Roxas","area":"Area D","official_branch_address":"Morente Ave., Bagumbayan, Roxas, Oriental Mindoro","country":"PH","region":{"code":"ln-souwesluz","meta":{"href":"https:\/\/www.mlepay.com\/api\/v1\/regions\/ln-souwesluz"},"name":"South Western Luzon Region"},"business_hours":"7:30 AM TO 6:30 PM","street_address1":"Morente Avenue Bagumbayan","id":"673","latlong":"12.596281799999607, 121.49789929389954","meta":{"href":"https:\/\/www.mlepay.com\/api\/v1\/branches\/ln-souwesluz-d-roxas-673"},"status":"ACTIVE","ho":"Luzon\/NCR","bc_kp":"ROXASM","tin_number":"002-394-238-372","zip_code":"5212"},{"phone_number":"284-5298","city":"Socorro","node_access_lock":"MLB-PH-LN-SOUWESLUZ-D-SOCORO","code":"ln-souwesluz-d-socorro-78","province":"Oriental Mindoro","name":"M Lhuillier Socorro","area":"Area D","official_branch_address":"ZONE 4, SOCORRO, ORIENTAL MINDORO","country":"PH","region":{"code":"ln-souwesluz","meta":{"href":"https:\/\/www.mlepay.com\/api\/v1\/regions\/ln-souwesluz"},"name":"South Western Luzon Region"},"business_hours":"8:00 AM TO 5:00 PM","street_address1":"Nautical Hi-way, Zone 4","id":"78","latlong":"13.056085033233353, 121.40660762786865","meta":{"href":"https:\/\/www.mlepay.com\/api\/v1\/branches\/ln-souwesluz-d-socorro-78"},"status":"ACTIVE","ho":"Luzon\/NCR","bc_kp":"SOCORO","tin_number":"004-265-130-298","zip_code":"5207"},{"phone_number":"(043) 285-5560","city":"Victoria","node_access_lock":"MLB-PH-LN-SOUWESLUZ-D-VICTOR","code":"ln-souwesluz-d-victoria-933","province":"Oriental Mindoro","name":"M Lhuillier Victoria","area":"Area D","official_branch_address":"NAUTICAL HIGHWAY, POBLACION 1, VICTORIA, ORIENTAL MINDORO","country":"PH","region":{"code":"ln-souwesluz","meta":{"href":"https:\/\/www.mlepay.com\/api\/v1\/regions\/ln-souwesluz"},"name":"South Western Luzon Region"},"business_hours":"7:30 AM TO 5:30 PM","street_address1":"Nautical Hi-way Pob. 1","id":"933","latlong":"13.161459529175396, 121.24225338979159","meta":{"href":"https:\/\/www.mlepay.com\/api\/v1\/branches\/ln-souwesluz-d-victoria-933"},"status":"ACTIVE","ho":"Luzon\/NCR","bc_kp":"VICTOR","tin_number":"002-394-238-994","zip_code":"5205"},{"phone_number":"(075) 632-5031","city":"Sual","node_access_lock":"MLB-PH-LN-TARPAN-A-SUAL","code":"ln-tarpan-b-sual-336","province":"Pangasinan","name":"M Lhuillier Sual","area":"Area A","official_branch_address":"120 POBLACION SUAL, PANGASINAN","country":"PH","region":{"code":"ln-tarpan","meta":{"href":"https:\/\/www.mlepay.com\/api\/v1\/regions\/ln-tarpan"},"name":"TARPAN Region"},"business_hours":"NA","street_address1":"120 Poblacion Sual, Pangasinan","id":"336","latlong":"16.064770344396578, 120.09707562888138","meta":{"href":"https:\/\/www.mlepay.com\/api\/v1\/branches\/ln-tarpan-b-sual-336"},"status":"ACTIVE","ho":"Luzon\/NCR","bc_kp":"SUAL","tin_number":"002-438-380-185","zip_code":"2403"},{"phone_number":"","city":"Urdaneta City","node_access_lock":"MLB-PH-LN-TARPAN-C-491","code":"ln-tarpan-c-491-491","province":"Pangasinan","name":"M Lhuillier URDANETA 3","area":"Area C","official_branch_address":"","country":"PH","region":{"code":"ln-tarpan","meta":{"href":"https:\/\/www.mlepay.com\/api\/v1\/regions\/ln-tarpan"},"name":"TARPAN Region"},"business_hours":"9:00 AM TO 6:00 PM","street_address1":"2Nd Floor Cb Mall, Mac Arthur Highway, Nancayasan","id":"491","latlong":"10.304785899037466, 123.90972018241882","meta":{"href":"https:\/\/www.mlepay.com\/api\/v1\/branches\/ln-tarpan-c-491-491"},"status":"ACTIVE","ho":"Luzon\/NCR","bc_kp":"491","tin_number":"","zip_code":"2428"}]