[{"phone_number":"086-853-1671","city":"Bislig","node_access_lock":"MLB-PH-VM-CARAGA-C-MANGA2","code":"vm-caraga-c-mangagoy_2-424","province":"Surigao del Sur","name":"M Lhuillier Mangagoy 2","area":"Area C","official_branch_address":"abarca st.Mangagoy,Bislig City","country":"PH","region":{"code":"vm-caraga","meta":{"href":"https:\/\/www.mlepay.com\/api\/v1\/regions\/vm-caraga"},"name":"CARAGA Region"},"business_hours":"NA","street_address1":"Abarca St., Mangagoy","id":"424","latlong":"10.30399421446816, 123.91219854354858","meta":{"href":"https:\/\/www.mlepay.com\/api\/v1\/branches\/vm-caraga-c-mangagoy_2-424"},"status":"ACTIVE","ho":"Visayas\/Mindanao","bc_kp":"MANGA2","tin_number":"003-169-106-066","zip_code":"8311"},{"phone_number":"(082) 553-4199","city":"Digos","node_access_lock":"MLB-PH-VM-COMDAVSUR-C-DIGOS2","code":"vm-comdavsur-c-digos_2-860","province":"Davao del Sur","name":"M Lhuillier Digos 2","area":"Area C","official_branch_address":"","country":"PH","region":{"code":"vm-comdavsur","meta":{"href":"https:\/\/www.mlepay.com\/api\/v1\/regions\/vm-comdavsur"},"name":"COMDAVSUR Region"},"business_hours":"7:00 AM TO 7:00 PM","street_address1":"1990 Rizal Ave.","id":"860","latlong":"6.753155017387387, 125.35574063658714","meta":{"href":"https:\/\/www.mlepay.com\/api\/v1\/branches\/vm-comdavsur-c-digos_2-860"},"status":"ACTIVE","ho":"Visayas\/Mindanao","bc_kp":"DIGOS2","tin_number":"002-394-238-955","zip_code":"8002"},{"phone_number":"(082) 282-2025","city":"Davao","node_access_lock":"MLB-PH-VM-DAVAO-A-BAJADA","code":"vm-davao-a-bajada-602","province":"Davao del Sur","name":"M Lhuillier Bajada","area":"Area A","official_branch_address":"DOOR #3 ARGACO BLDG JPLAUREL DAVAO CITY","country":"PH","region":{"code":"vm-davao","meta":{"href":"https:\/\/www.mlepay.com\/api\/v1\/regions\/vm-davao"},"name":"Davao Region"},"business_hours":"8:00 AM TO 8:00 PM","street_address1":"Door 3,Argaco Bldg.,JP Laurel Avenue, Bajada","id":"602","latlong":"7.077459, 125.613125","meta":{"href":"https:\/\/www.mlepay.com\/api\/v1\/branches\/vm-davao-a-bajada-602"},"status":"ACTIVE","ho":"Visayas\/Mindanao","bc_kp":"BAJADA","tin_number":"004-265-130-441","zip_code":"8000"},{"phone_number":"09479990623","city":"Davao","node_access_lock":"MLB-PH-VM-DAVAO-A-BUHANG","code":"vm-davao-a-buhangin-301","province":"Davao del Sur","name":"M Lhuillier Buhangin","area":"Area A","official_branch_address":"BATU BLDG., KM5 BUHANGIN DAVAO CITY","country":"PH","region":{"code":"vm-davao","meta":{"href":"https:\/\/www.mlepay.com\/api\/v1\/regions\/vm-davao"},"name":"Davao Region"},"business_hours":"7:00 AM TO 7:00 PM","street_address1":"KM 5 Batu Bldg., Buhangin","id":"301","latlong":"7.102553, 125.614090","meta":{"href":"https:\/\/www.mlepay.com\/api\/v1\/branches\/vm-davao-a-buhangin-301"},"status":"ACTIVE","ho":"Visayas\/Mindanao","bc_kp":"BUHANG","tin_number":"004-265-147","zip_code":"8000"},{"phone_number":"082-295-3378","city":"Davao","node_access_lock":"MLB-PH-VM-DAVAO-A-BUHAN2","code":"vm-davao-a-buhangin_2-723","province":"Davao del Sur","name":"M Lhuillier Buhangin 2","area":"Area A","official_branch_address":"PIATOS BLDG KM 7 PHIL-JAPAN HI-WAY BUHANGIN DAVAO CITY","country":"PH","region":{"code":"vm-davao","meta":{"href":"https:\/\/www.mlepay.com\/api\/v1\/regions\/vm-davao"},"name":"Davao Region"},"business_hours":"7:00 AM TO 6:00 PM","street_address1":"Piatos Bldg, KM 7 philjapan highway Buhangin, Davao City","id":"723","latlong":"7.115048, 125.624015","meta":{"href":"https:\/\/www.mlepay.com\/api\/v1\/branches\/vm-davao-a-buhangin_2-723"},"status":"ACTIVE","ho":"Visayas\/Mindanao","bc_kp":"BUHAN2","tin_number":"004-265-130-811","zip_code":"8000"},{"phone_number":"(947) 999-2506","city":"Davao","node_access_lock":"MLB-PH-VM-DAVAO-A-BUHAN3","code":"vm-davao-a-buhangin_3-0","province":"Davao del Sur","name":"M Lhuillier Buhangin 3","area":"Area A","official_branch_address":"","country":"PH","region":{"code":"vm-davao","meta":{"href":"https:\/\/www.mlepay.com\/api\/v1\/regions\/vm-davao"},"name":"Davao Region"},"business_hours":"9:00 AM TO 7:00 PM","street_address1":"KM.6 Milan,Buhangin,Davao del Sur","id":"981","latlong":"7.109244, 125.613225","meta":{"href":"https:\/\/www.mlepay.com\/api\/v1\/branches\/vm-davao-a-buhangin_3-0"},"status":"ACTIVE","ho":"Visayas\/Mindanao","bc_kp":"BUHAN3","tin_number":"003-169-106-265","zip_code":"8000"},{"phone_number":"(947) 999-2042","city":"Davao City","node_access_lock":"MLB-PH-VM-DAVAO-A-BUNAWA","code":"vm-davao-a-bunawan-855","province":"Davao del Sur","name":"M Lhuillier Bunawan","area":"Area A","official_branch_address":"Tambiga Bldg., Km. 23 Bunawan Davao City","country":"PH","region":{"code":"vm-davao","meta":{"href":"https:\/\/www.mlepay.com\/api\/v1\/regions\/vm-davao"},"name":"Davao Region"},"business_hours":"8:00 AM TO 5:00 PM","street_address1":"Tambiga Bldg. Km 23, Bunawan","id":"739","latlong":"7.236195, 125.642435","meta":{"href":"https:\/\/www.mlepay.com\/api\/v1\/branches\/vm-davao-a-bunawan-855"},"status":"ACTIVE","ho":"Visayas\/Mindanao","bc_kp":"BUNAWA","tin_number":"004265130812","zip_code":"8000"},{"phone_number":"(947) 999-2652","city":"Davao City","node_access_lock":"MLB-PH-VM-DAVAO-A-CABAGU","code":"vm-davao-a-cabaguio-0","province":"Davao del Sur","name":"M Lhuillier Cabaguio","area":"Area A","official_branch_address":"","country":"PH","region":{"code":"vm-davao","meta":{"href":"https:\/\/www.mlepay.com\/api\/v1\/regions\/vm-davao"},"name":"Davao Region"},"business_hours":"8:00 AM TO 6:00 PM","street_address1":"DR 1093 Gahol Bldg.  JP Cabaguio ave, Agdao  Davao City","id":"0","latlong":"7.097124, 125.620240","meta":{"href":"https:\/\/www.mlepay.com\/api\/v1\/branches\/vm-davao-a-cabaguio-0"},"status":"ACTIVE","ho":"Visayas\/Mindanao","bc_kp":"CABAGU","tin_number":"003-169-106-262","zip_code":"8000"},{"phone_number":"(082) 3211913","city":"Davao City","node_access_lock":"MLB-PH-VM-DAVAO-A-CBANTI","code":"vm-davao-a-cabantian-791","province":"Davao del Sur","name":"M Lhuillier Cabantian","area":"Area A","official_branch_address":"AJK-3G BLDG. CORP  CABANTIAN ROAD,  DAVAO CITY ","country":"PH","region":{"code":"vm-davao","meta":{"href":"https:\/\/www.mlepay.com\/api\/v1\/regions\/vm-davao"},"name":"Davao Region"},"business_hours":"8:00 AM TO 5:00 PM","street_address1":"AJK-3G Bldg. Corp. Cabantian Road,Cabantian Buhangin Dist. Davao  City","id":"791","latlong":"7.128991, 125.619169","meta":{"href":"https:\/\/www.mlepay.com\/api\/v1\/branches\/vm-davao-a-cabantian-791"},"status":"ACTIVE","ho":"Visayas\/Mindanao","bc_kp":"CBANTI","tin_number":"004-265-130-881","zip_code":"8000"},{"phone_number":"(084) 628-8868","city":"Carmen","node_access_lock":"MLB-PH-VM-DAVAO-A-CARMDA","code":"vm-davao-a-carmen-661","province":"Davao del Norte","name":"M Lhuillier Carmen","area":"Area A","official_branch_address":"","country":"PH","region":{"code":"vm-davao","meta":{"href":"https:\/\/www.mlepay.com\/api\/v1\/regions\/vm-davao"},"name":"Davao Region"},"business_hours":"7:00 AM TO 5:00 PM","street_address1":"PRK. 8 ISING CARMEN DAVAO DEL NORTE","id":"661","latlong":"7.353056, 125.703877","meta":{"href":"https:\/\/www.mlepay.com\/api\/v1\/branches\/vm-davao-a-carmen-661"},"status":"ACTIVE","ho":"Visayas\/Mindanao","bc_kp":"CARMDA","tin_number":"","zip_code":"8101"},{"phone_number":"(032) 235-2371","city":"Panacan","node_access_lock":"MLB-PH-VM-DAVAO-A-PANACA","code":"vm-davao-a-panacan_1-303","province":"Davao del Sur","name":"M Lhuillier Panacan 1","area":"Area A","official_branch_address":"panacan davao city","country":"PH","region":{"code":"vm-davao","meta":{"href":"https:\/\/www.mlepay.com\/api\/v1\/regions\/vm-davao"},"name":"Davao Region"},"business_hours":"NA","street_address1":"Zaida Fong Bldg., Infront of public market KM 14, Panacan, Davao City","id":"303","latlong":"7.152272, 125.658983","meta":{"href":"https:\/\/www.mlepay.com\/api\/v1\/branches\/vm-davao-a-panacan_1-303"},"status":"ACTIVE","ho":"Visayas\/Mindanao","bc_kp":"PANACA","tin_number":"002-394-238-000","zip_code":"8000"},{"phone_number":"(947) 999-1971","city":"Davao","node_access_lock":"MLB-PH-VM-DAVAO-A-SNPEDA","code":"vm-davao-a-san_pedro-306","province":"Davao del Sur","name":"M Lhuillier San Pedro","area":"Area A","official_branch_address":"CARRIEDO BLDG SAN PEDRO STREET DAVAO CITY","country":"PH","region":{"code":"vm-davao","meta":{"href":"https:\/\/www.mlepay.com\/api\/v1\/regions\/vm-davao"},"name":"Davao Region"},"business_hours":"8:00 AM TO 8:00 AM","street_address1":"San Pedro St. Carriedo Bldg. Davao City","id":"306","latlong":"7.066660, 125.606252","meta":{"href":"https:\/\/www.mlepay.com\/api\/v1\/branches\/vm-davao-a-san_pedro-306"},"status":"ACTIVE","ho":"Visayas\/Mindanao","bc_kp":"SNPEDA","tin_number":"002-394-238-260","zip_code":"8000"},{"phone_number":"(032) 238-0001","city":"Tibungco","node_access_lock":"MLB-PH-VM-DAVAO-A-TIBUNG","code":"vm-davao-a-tibungco-308","province":"Davao del Sur","name":"M Lhuillier Tibungco","area":"Area A","official_branch_address":"","country":"PH","region":{"code":"vm-davao","meta":{"href":"https:\/\/www.mlepay.com\/api\/v1\/regions\/vm-davao"},"name":"Davao Region"},"business_hours":"8:00 AM TO 7:00 PM","street_address1":"SIMEON VALDEZ BLDG., PRK 3 TIBUNGCO, DAVAO CITY","id":"308","latlong":"7.192304, 125.648047","meta":{"href":"https:\/\/www.mlepay.com\/api\/v1\/branches\/vm-davao-a-tibungco-308"},"status":"ACTIVE","ho":"Visayas\/Mindanao","bc_kp":"TIBUNG","tin_number":"002-394-238-262","zip_code":"8024"},{"phone_number":"(639) 999-2234","city":"Davao City","node_access_lock":"MLB-PH-VM-DAVAO-B-ABREEZ","code":"vm-davao-b-abreeza_mall-805","province":"Davao del Sur","name":"M Lhuillier Abreeza Mall","area":"Area B","official_branch_address":"","country":"PH","region":{"code":"vm-davao","meta":{"href":"https:\/\/www.mlepay.com\/api\/v1\/regions\/vm-davao"},"name":"Davao Region"},"business_hours":"10:00 AM TO 9:00 PM","street_address1":"Abreeza Mall Davao Level 3 3036, JP Laurel Ave.","id":"805","latlong":"7.091196, 125.611146","meta":{"href":"https:\/\/www.mlepay.com\/api\/v1\/branches\/vm-davao-b-abreeza_mall-805"},"status":"ACTIVE","ho":"Visayas\/Mindanao","bc_kp":"ABREEZ","tin_number":"002-438-380-081","zip_code":"8000"},{"phone_number":"(639) 999-2653","city":"Davao","node_access_lock":"MLB-PH-VM-DAVAO-B-BANKER","code":"vm-davao-b-bankerohan-0","province":"Davao del Sur","name":"M Lhuillier Bankerohan","area":"Area B","official_branch_address":"MAGALLANES EXTENSION BANKEROHAN,DAVAO CITY","country":"PH","region":{"code":"vm-davao","meta":{"href":"https:\/\/www.mlepay.com\/api\/v1\/regions\/vm-davao"},"name":"Davao Region"},"business_hours":"8:00 AM TO 6:00 PM","street_address1":"Door #8,Magallanes,Extension,Bankerohan,Davao City","id":"916","latlong":"7.068598, 125.602603","meta":{"href":"https:\/\/www.mlepay.com\/api\/v1\/branches\/vm-davao-b-bankerohan-0"},"status":"ACTIVE","ho":"Visayas\/Mindanao","bc_kp":"BANKER","tin_number":"003-169-106-276","zip_code":"8000"},{"phone_number":"2213342\/09479990612","city":"Davao","node_access_lock":"MLB-PH-VM-DAVAO-B-BOLTO1","code":"vm-davao-b-bolton_1-326","province":"Davao del Sur","name":"M Lhuillier Bolton 1","area":"Area B","official_branch_address":"BOLTON ST COR, BONIFACIO","country":"PH","region":{"code":"vm-davao","meta":{"href":"https:\/\/www.mlepay.com\/api\/v1\/regions\/vm-davao"},"name":"Davao Region"},"business_hours":"8:00 AM TO 8:00 AM","street_address1":"Bonifacio St., cor. Bolton St.","id":"326","latlong":"7.067772, 125.610115","meta":{"href":"https:\/\/www.mlepay.com\/api\/v1\/branches\/vm-davao-b-bolton_1-326"},"status":"ACTIVE","ho":"Visayas\/Mindanao","bc_kp":"BOLTO1","tin_number":"002-394-238-271","zip_code":"8000"},{"phone_number":"0822251059","city":"Davao","node_access_lock":"MLB-PH-VM-DAVAO-B-BOLTO2","code":"vm-davao-b-bolton_2-327","province":"Davao del Sur","name":"M Lhuillier Bolton 2","area":"Area B","official_branch_address":"dr 4 mitre bldg cor bolton and san pedro sts, davao city","country":"PH","region":{"code":"vm-davao","meta":{"href":"https:\/\/www.mlepay.com\/api\/v1\/regions\/vm-davao"},"name":"Davao Region"},"business_hours":"8:00 AM TO 8:00 PM","street_address1":"bolton st., cor san pedro st door 4 mitra bldg","id":"327","latlong":"7.064719, 125.609001","meta":{"href":"https:\/\/www.mlepay.com\/api\/v1\/branches\/vm-davao-b-bolton_2-327"},"status":"ACTIVE","ho":"Visayas\/Mindanao","bc_kp":"BOLTO2","tin_number":"002-394-238-889","zip_code":"8000"},{"phone_number":"09479990666","city":"Davao","node_access_lock":"MLB-PH-VM-DAVAO-B-CMRECT","code":"vm-davao-b-cm_recto-329","province":"Davao del Sur","name":"M Lhuillier CM Recto","area":"Area B","official_branch_address":"DONA SEGUNDA BLDG. CM RECTO ST. DAVAO CITY","country":"PH","region":{"code":"vm-davao","meta":{"href":"https:\/\/www.mlepay.com\/api\/v1\/regions\/vm-davao"},"name":"Davao Region"},"business_hours":"8:00 AM TO 8:00 PM","street_address1":"CM Recto St.","id":"329","latlong":"7.070939, 125.611567","meta":{"href":"https:\/\/www.mlepay.com\/api\/v1\/branches\/vm-davao-b-cm_recto-329"},"status":"ACTIVE","ho":"Visayas\/Mindanao","bc_kp":"CMRECT","tin_number":"004-265-147-020","zip_code":"8000"},{"phone_number":"082-2346059","city":"Davao","node_access_lock":"MLB-PH-VM-DAVAO-B-DAMOSA","code":"vm-davao-b-damosa-515","province":"Davao del Sur","name":"M Lhuillier Damosa","area":"Area B","official_branch_address":"ZONE A UNIT 5 DAMOSA GATEWAY MAMAY RD LANANG DAVAO CITY","country":"PH","region":{"code":"vm-davao","meta":{"href":"https:\/\/www.mlepay.com\/api\/v1\/regions\/vm-davao"},"name":"Davao Region"},"business_hours":"8:00 AM TO 6:00 PM","street_address1":"Zone A unit 5, Damosa Gateway, Mamay Road, Lanang","id":"515","latlong":"7.101946, 125.632745","meta":{"href":"https:\/\/www.mlepay.com\/api\/v1\/branches\/vm-davao-b-damosa-515"},"status":"ACTIVE","ho":"Visayas\/Mindanao","bc_kp":"DAMOSA","tin_number":"002-394-238-215","zip_code":"8000"},{"phone_number":"082-227-4705","city":"Davao","node_access_lock":"MLB-PH-VM-DAVAO-B-ILUSTR","code":"vm-davao-b-ilustre-302","province":"Davao del Sur","name":"M Lhuillier Ilustre","area":"Area B","official_branch_address":"SKYLITE ARCADE, ILUSTRE DAVAO CITY","country":"PH","region":{"code":"vm-davao","meta":{"href":"https:\/\/www.mlepay.com\/api\/v1\/regions\/vm-davao"},"name":"Davao Region"},"business_hours":"8:00 AM TO 8:00 PM","street_address1":"Gahol Arcade, Ilustre St.","id":"302","latlong":"7.069450, 125.605746","meta":{"href":"https:\/\/www.mlepay.com\/api\/v1\/branches\/vm-davao-b-ilustre-302"},"status":"ACTIVE","ho":"Visayas\/Mindanao","bc_kp":"ILUSTR","tin_number":"002-394-238-267","zip_code":"8000"},{"phone_number":"0822976524","city":"Matina","node_access_lock":"MLB-PH-VM-DAVAO-B-MATINA","code":"vm-davao-b-matina-333","province":"Davao del Sur","name":"M Lhuillier Matina","area":"Area B","official_branch_address":"TAVITA BLDG.,MC ARTHUR HI-WAY, MATINA, DAVAO CITY ","country":"PH","region":{"code":"vm-davao","meta":{"href":"https:\/\/www.mlepay.com\/api\/v1\/regions\/vm-davao"},"name":"Davao Region"},"business_hours":"NA","street_address1":"Mc Arthur Hi-Way, Matina, Davao City","id":"333","latlong":"7.058005, 125.570195","meta":{"href":"https:\/\/www.mlepay.com\/api\/v1\/branches\/vm-davao-b-matina-333"},"status":"ACTIVE","ho":"Visayas\/Mindanao","bc_kp":"MATINA","tin_number":"002-394-238-264","zip_code":"8000"},{"phone_number":"(639) 999-0925","city":"Davao","node_access_lock":"MLB-PH-VM-DAVAO-B-NCCMAL","code":"vm-davao-b-nccc_mall-893","province":"Davao del Sur","name":"M Lhuillier NCCC Mall","area":"Area B","official_branch_address":"","country":"PH","region":{"code":"vm-davao","meta":{"href":"https:\/\/www.mlepay.com\/api\/v1\/regions\/vm-davao"},"name":"Davao Region"},"business_hours":"10:00 AM TO 8:00 PM","street_address1":"NCCC Mall, National Hi-way, Matina","id":"893","latlong":"7.062537, 125.593589","meta":{"href":"https:\/\/www.mlepay.com\/api\/v1\/branches\/vm-davao-b-nccc_mall-893"},"status":"ACTIVE","ho":"Visayas\/Mindanao","bc_kp":"NCCMAL","tin_number":"","zip_code":"8000"},{"phone_number":"082-291-2187","city":"Toril","node_access_lock":"MLB-PH-VM-DAVAO-B-TORIL2","code":"vm-davao-b-toril_2-334","province":"Davao del Sur","name":"M Lhuillier Toril 2","area":"Area B","official_branch_address":"MARINA UY BLDG AGTON ST, TORIL DAVAO CITY","country":"PH","region":{"code":"vm-davao","meta":{"href":"https:\/\/www.mlepay.com\/api\/v1\/regions\/vm-davao"},"name":"Davao Region"},"business_hours":"7:00 AM TO 7:00 PM","street_address1":"Door 2 Marina bldg. Agton St., Toril, Davao City","id":"334","latlong":"7.016027, 125.497991","meta":{"href":"https:\/\/www.mlepay.com\/api\/v1\/branches\/vm-davao-b-toril_2-334"},"status":"ACTIVE","ho":"Visayas\/Mindanao","bc_kp":"TORIL2","tin_number":"002-394-238-261","zip_code":"8025"},{"phone_number":"(639) 999-2220","city":"Toril","node_access_lock":"MLB-PH-VM-DAVAO-B-TORIL3","code":"vm-davao-b-toril_3-792","province":"Davao del Sur","name":"M Lhuillier Toril 3","area":"Area B","official_branch_address":"","country":"PH","region":{"code":"vm-davao","meta":{"href":"https:\/\/www.mlepay.com\/api\/v1\/regions\/vm-davao"},"name":"Davao Region"},"business_hours":"8:00 AM TO 5:00 PM","street_address1":"Mc Arthur Highway, Crossing Bayabas, Toril, Davao City","id":"792","latlong":"7.019758, 125.495421","meta":{"href":"https:\/\/www.mlepay.com\/api\/v1\/branches\/vm-davao-b-toril_3-792"},"status":"ACTIVE","ho":"Visayas\/Mindanao","bc_kp":"TORIL3","tin_number":"004-265-130-873","zip_code":"8025"},{"phone_number":"0822980588","city":"Davao","node_access_lock":"MLB-PH-VM-DAVAO-B-ULAS","code":"vm-davao-b-ulas-540","province":"Davao del Sur","name":"M Lhuillier Ulas","area":"Area B","official_branch_address":"M LHUILLIER ULAS BRANCH DOOR 3 PORIO BLDG. KM 8 ULAS DAVAO CITY","country":"PH","region":{"code":"vm-davao","meta":{"href":"https:\/\/www.mlepay.com\/api\/v1\/regions\/vm-davao"},"name":"Davao Region"},"business_hours":"7:00 AM TO 7:00 PM","street_address1":"Door 3 Porio Building, Km 8,Mc Arthur Highway, Ulas, Davao City","id":"540","latlong":"7.054496, 125.545179","meta":{"href":"https:\/\/www.mlepay.com\/api\/v1\/branches\/vm-davao-b-ulas-540"},"status":"ACTIVE","ho":"Visayas\/Mindanao","bc_kp":"ULAS","tin_number":"004-265-130-299","zip_code":"8000"},{"phone_number":"(082) 305-5070","city":"Davao","node_access_lock":"MLB-PH-VM-DAVAO-E-AGDAO3","code":"vm-davao-e-agdao_3-967","province":"Davao del Sur","name":"M Lhuillier Agdao 3","area":"Area E","official_branch_address":"WILFREDO AQUINO ST., AGDAO, DAVAO CITY","country":"PH","region":{"code":"vm-davao","meta":{"href":"https:\/\/www.mlepay.com\/api\/v1\/regions\/vm-davao"},"name":"Davao Region"},"business_hours":"9:00 AM TO 5:00 PM","street_address1":"B23 L6 Wilfredo Aquino St, Agdao Davao City","id":"967","latlong":"7.081377136136485, 125.62343716621399","meta":{"href":"https:\/\/www.mlepay.com\/api\/v1\/branches\/vm-davao-e-agdao_3-967"},"status":"ACTIVE","ho":"Visayas\/Mindanao","bc_kp":"AGDAO3","tin_number":"003-169-106-255","zip_code":"8000"},{"phone_number":"(082) 295-0572","city":"Davao City","node_access_lock":"MLB-PH-VM-DAVAO-E-CALINA","code":"vm-davao-e-calinan-328","province":"Davao del Sur","name":"M Lhuillier Calinan","area":"Area E","official_branch_address":"DOOR 1 FORTUNE TRADERS BLDG MC ARTHUR HI WAY CALINAN DAVAO CITY","country":"PH","region":{"code":"vm-davao","meta":{"href":"https:\/\/www.mlepay.com\/api\/v1\/regions\/vm-davao"},"name":"Davao Region"},"business_hours":"8:00 AM TO 6:00 PM","street_address1":"Mc Arthur Hi-Way Door #1 Fortune Traders Bldg.","id":"328","latlong":"7.191640, 125.454829","meta":{"href":"https:\/\/www.mlepay.com\/api\/v1\/branches\/vm-davao-e-calinan-328"},"status":"ACTIVE","ho":"Visayas\/Mindanao","bc_kp":"CALINA","tin_number":"002-394-238-263","zip_code":"8000"},{"phone_number":"082-244-1572","city":"Davao","node_access_lock":"MLB-PH-VM-DAVAO-E-MAA","code":"vm-davao-e-ma+a-894","province":"Davao del Sur","name":"M Lhuillier Ma-a","area":"Area E","official_branch_address":"DR 7 GLK BLGD KM. 1511 MA-A DAVAO CITY","country":"PH","region":{"code":"vm-davao","meta":{"href":"https:\/\/www.mlepay.com\/api\/v1\/regions\/vm-davao"},"name":"Davao Region"},"business_hours":"8:00 AM TO 6:00 PM","street_address1":"Km 1511 GLK Bldg., Brgy. Ma-a, Davao City","id":"894","latlong":"7.079153,  125.583168","meta":{"href":"https:\/\/www.mlepay.com\/api\/v1\/branches\/vm-davao-e-ma+a-894"},"status":"ACTIVE","ho":"Visayas\/Mindanao","bc_kp":"MAA","tin_number":"002-394-238-820","zip_code":"8000"},{"phone_number":"(082) 293-0177","city":"Mintal","node_access_lock":"MLB-PH-VM-DAVAO-E-MINTAL","code":"vm-davao-e-mintal-541","province":"Davao del Sur","name":"M Lhuillier Mintal","area":"Area E","official_branch_address":"","country":"PH","region":{"code":"vm-davao","meta":{"href":"https:\/\/www.mlepay.com\/api\/v1\/regions\/vm-davao"},"name":"Davao Region"},"business_hours":"8:00 AM TO 6:00 PM","street_address1":"Door 4 Fourpellar Bldg.,Bougainvilla St., Mintal Davao City","id":"541","latlong":"7.091872, 125.500745","meta":{"href":"https:\/\/www.mlepay.com\/api\/v1\/branches\/vm-davao-e-mintal-541"},"status":"ACTIVE","ho":"Visayas\/Mindanao","bc_kp":"MINTAL","tin_number":"004-265-130-279","zip_code":"8000"},{"phone_number":"(082) 297-5952","city":"Davao","node_access_lock":"MLB-PH-VM-DAVAO-E-SIR","code":"vm-davao-e-sandawa-127","province":"Davao del Sur","name":"M Lhuillier Sandawa","area":"Area E","official_branch_address":"","country":"PH","region":{"code":"vm-davao","meta":{"href":"https:\/\/www.mlepay.com\/api\/v1\/regions\/vm-davao"},"name":"Davao Region"},"business_hours":"7:00 AM TO 7:00 PM","street_address1":"Sandawa Road, SIR, Matina","id":"127","latlong":"7.061943, 125.601395","meta":{"href":"https:\/\/www.mlepay.com\/api\/v1\/branches\/vm-davao-e-sandawa-127"},"status":"ACTIVE","ho":"Visayas\/Mindanao","bc_kp":"SIR","tin_number":"004-265-130-636","zip_code":"8000"},{"phone_number":"082 234-2125","city":"Davao","node_access_lock":"MLB-PH-VM-DAVAO-E-SASA","code":"vm-davao-e-sasa-624","province":"Davao del Sur","name":"M Lhuillier Sasa","area":"Area E","official_branch_address":"UNIT A 10 & 11 ANFLOCOR BLDG KM 11 SASA DAVAOC ITY","country":"PH","region":{"code":"vm-davao","meta":{"href":"https:\/\/www.mlepay.com\/api\/v1\/regions\/vm-davao"},"name":"Davao Region"},"business_hours":"8:00 AM TO 7:00 PM","street_address1":"km 11 Sasa Davao City","id":"624","latlong":"7.137640, 125.661709","meta":{"href":"https:\/\/www.mlepay.com\/api\/v1\/branches\/vm-davao-e-sasa-624"},"status":"ACTIVE","ho":"Visayas\/Mindanao","bc_kp":"SASA","tin_number":"004-265-130-442","zip_code":"8000"},{"phone_number":"(947) 999-1125","city":"Davao","node_access_lock":"MLB-PH-VM-DAVAO-E-UYANGU","code":"vm-davao-e-uyanguren-309","province":"Davao del Sur","name":"M Lhuillier Uyanguren","area":"Area E","official_branch_address":"","country":"PH","region":{"code":"vm-davao","meta":{"href":"https:\/\/www.mlepay.com\/api\/v1\/regions\/vm-davao"},"name":"Davao Region"},"business_hours":"7:00 AM TO 7:00 PM","street_address1":"Gempesaw St. Simeon Uy King Bldg. door 3","id":"309","latlong":"7.074243, 125.620627","meta":{"href":"https:\/\/www.mlepay.com\/api\/v1\/branches\/vm-davao-e-uyanguren-309"},"status":"ACTIVE","ho":"Visayas\/Mindanao","bc_kp":"UYANGU","tin_number":"002-394-238-259","zip_code":"8000"},{"phone_number":"088 813 4381","city":"Malaybalay","node_access_lock":"MLB-PH-VM-YANCAM-B-MALAYB","code":"vm-yancam-b-malaybalay_1-338","province":"Bukidnon","name":"M Lhuillier Malaybalay 1","area":"Area B","official_branch_address":"# 85 Fortich Street Barangay 3, Malaybalay City, Bukidnon","country":"PH","region":{"code":"vm-yancam","meta":{"href":"https:\/\/www.mlepay.com\/api\/v1\/regions\/vm-yancam"},"name":"YANGAN CAMBUNAO Region"},"business_hours":"8:00 AM TO 5:00 PM","street_address1":"Fortich St.","id":"338","latlong":"8.167993177231883, 125.1507568359375","meta":{"href":"https:\/\/www.mlepay.com\/api\/v1\/branches\/vm-yancam-b-malaybalay_1-338"},"status":"ACTIVE","ho":"Visayas\/Mindanao","bc_kp":"MALAYB","tin_number":"003-169-106-025","zip_code":"8700"},{"phone_number":"(947) 999-2209","city":"Medina","node_access_lock":"MLB-PH-VM-YANCAM-D-MEDINA","code":"vm-yancam-d-medina-795","province":"Misamis Oriental","name":"M Lhuillier Medina","area":"Area D","official_branch_address":"","country":"PH","region":{"code":"vm-yancam","meta":{"href":"https:\/\/www.mlepay.com\/api\/v1\/regions\/vm-yancam"},"name":"YANGAN CAMBUNAO Region"},"business_hours":"NA","street_address1":"South Poblacion, Medina, Misamis Oriental","id":"795","latlong":"8.90610164126264, 125.02518653869629","meta":{"href":"https:\/\/www.mlepay.com\/api\/v1\/branches\/vm-yancam-d-medina-795"},"status":"ACTIVE","ho":"Visayas\/Mindanao","bc_kp":"MEDINA","tin_number":"","zip_code":"9013"},{"phone_number":"","city":"Jolo","node_access_lock":"MLB-PH-VM-ZAMBASTA-C-922","code":"vm-zambasta-c-922-922","province":"Sulu","name":"M Lhuillier Busbus","area":"Area C","official_branch_address":"","country":"PH","region":{"code":"vm-zambasta","meta":{"href":"https:\/\/www.mlepay.com\/api\/v1\/regions\/vm-zambasta"},"name":"ZAMBASTA Region"},"business_hours":"7:00 AM TO 4:00 PM","street_address1":"Brgy.Busbus,Jolo,Sulu","id":"922","latlong":"6.055156398253547, 121.0008779168129","meta":{"href":"https:\/\/www.mlepay.com\/api\/v1\/branches\/vm-zambasta-c-922-922"},"status":"ACTIVE","ho":"Visayas\/Mindanao","bc_kp":"922","tin_number":"","zip_code":"7400"},{"phone_number":"(088) 545-0034","city":"Tudela","node_access_lock":"MLB-PH-VM-ZAMISLAN-A-TUDELA","code":"vm-zamislan-a-tudela-474","province":"Misamis Occidental","name":"M Lhuillier Tudela","area":"Area A","official_branch_address":"CENTRO NAPU, TUDELA","country":"PH","region":{"code":"vm-zamislan","meta":{"href":"https:\/\/www.mlepay.com\/api\/v1\/regions\/vm-zamislan"},"name":"ZAMISLAN Region"},"business_hours":"7:00 AM TO 6:00 PM","street_address1":"Centro NAPU, Tudela","id":"474","latlong":"14.5502700806, 121.0326919556","meta":{"href":"https:\/\/www.mlepay.com\/api\/v1\/branches\/vm-zamislan-a-tudela-474"},"status":"ACTIVE","ho":"Visayas\/Mindanao","bc_kp":"TUDELA","tin_number":"002-394-238-445","zip_code":"7202"},{"phone_number":"","city":"Dinas","node_access_lock":"MLB-PH-VM-ZAMISLAN-B-DINAS","code":"vm-zamislan-b-dinas-692","province":"Zamboanga del Sur","name":"M Lhuillier Dinas","area":"Area B","official_branch_address":"","country":"PH","region":{"code":"vm-zamislan","meta":{"href":"https:\/\/www.mlepay.com\/api\/v1\/regions\/vm-zamislan"},"name":"ZAMISLAN Region"},"business_hours":"NA","street_address1":"Poblacion Dinas, Pagadian","id":"692","latlong":"10.307984284447233, 123.9031970500946","meta":{"href":"https:\/\/www.mlepay.com\/api\/v1\/branches\/vm-zamislan-b-dinas-692"},"status":"ACTIVE","ho":"Visayas\/Mindanao","bc_kp":"DINAS","tin_number":"","zip_code":"7030"},{"phone_number":"(062) 214-1333","city":"Pagadian","node_access_lock":"MLB-PH-VM-ZAMISLAN-B-PAGAD1","code":"vm-zamislan-b-pagadian_1-481","province":"Zamboanga del Sur","name":"M Lhuillier Pagadian 1","area":"Area B","official_branch_address":"","country":"PH","region":{"code":"vm-zamislan","meta":{"href":"https:\/\/www.mlepay.com\/api\/v1\/regions\/vm-zamislan"},"name":"ZAMISLAN Region"},"business_hours":"7:00 AM TO 6:00 PM","street_address1":"F.S. Pajares Ave. Gatas Dist. Pagadian City","id":"481","latlong":"7.8238651938406605, 123.43763530254364","meta":{"href":"https:\/\/www.mlepay.com\/api\/v1\/branches\/vm-zamislan-b-pagadian_1-481"},"status":"ACTIVE","ho":"Visayas\/Mindanao","bc_kp":"PAGAD1","tin_number":"","zip_code":"7016"}]