[{"phone_number":"","city":"Buenavista","node_access_lock":"MLB-PH-VM-BOHOL-B-BUENBO","code":"vm-bohol-b-buenavista-761","province":"Bohol","name":"M Lhuillier Buenavista","area":"Area B","official_branch_address":"","country":"PH","region":{"code":"vm-bohol","meta":{"href":"https:\/\/www.mlepay.com\/api\/v1\/regions\/vm-bohol"},"name":"Bohol Region"},"business_hours":"NA","street_address1":"Brgy. Hunan, Poblacion","id":"761","latlong":"9.470735674130932, 124.244384765625","meta":{"href":"https:\/\/www.mlepay.com\/api\/v1\/branches\/vm-bohol-b-buenavista-761"},"status":"ACTIVE","ho":"Visayas\/Mindanao","bc_kp":"BUENBO","tin_number":"","zip_code":"6333"},{"phone_number":"+639479990621","city":"Bugasong","node_access_lock":"MLB-PH-VM-CAAR-A-BUGASO","code":"vm-caar-a-bugasong-36","province":"Antique","name":"M Lhuillier Bugasong","area":"Area A","official_branch_address":"BONIFACIO ST. POJO BUGASONG ANTIQUE","country":"PH","region":{"code":"vm-caar","meta":{"href":"https:\/\/www.mlepay.com\/api\/v1\/regions\/vm-caar"},"name":"CAAR Region"},"business_hours":"7:00 AM TO 6:00 PM","street_address1":"Bonifacio St., National Highway, Pojo","id":"36","latlong":"11.045479198087424, 122.06552043557167","meta":{"href":"https:\/\/www.mlepay.com\/api\/v1\/branches\/vm-caar-a-bugasong-36"},"status":"ACTIVE","ho":"Visayas\/Mindanao","bc_kp":"BUGASO","tin_number":"002-394-238-984","zip_code":"5704"},{"phone_number":"09479991152","city":"Patnongon","node_access_lock":"MLB-PH-VM-CAAR-A-PATNGN","code":"vm-caar-a-patnongon-677","province":"Antique","name":"M Lhuillier Patnongon","area":"Area A","official_branch_address":"REAL ST POBLACION PATNONGON ANTIQUE","country":"PH","region":{"code":"vm-caar","meta":{"href":"https:\/\/www.mlepay.com\/api\/v1\/regions\/vm-caar"},"name":"CAAR Region"},"business_hours":"7:00 AM TO 6:00 PM","street_address1":"Real St.","id":"677","latlong":"10.914803418733081, 121.99488043785095","meta":{"href":"https:\/\/www.mlepay.com\/api\/v1\/branches\/vm-caar-a-patnongon-677"},"status":"ACTIVE","ho":"Visayas\/Mindanao","bc_kp":"PATNGN","tin_number":"004-265-130-622","zip_code":"5702"},{"phone_number":"0365407051","city":"San Jose","node_access_lock":"MLB-PH-VM-CAAR-A-SNJOAN","code":"vm-caar-a-san_jose-712","province":"Antique","name":"M Lhuillier San Jose","area":"Area A","official_branch_address":"bagumbayan san jose antique","country":"PH","region":{"code":"vm-caar","meta":{"href":"https:\/\/www.mlepay.com\/api\/v1\/regions\/vm-caar"},"name":"CAAR Region"},"business_hours":"8:00 AM TO 6:00 PM","street_address1":"Bagumbayan","id":"712","latlong":"10.743003370932874, 121.94756090641022","meta":{"href":"https:\/\/www.mlepay.com\/api\/v1\/branches\/vm-caar-a-san_jose-712"},"status":"ACTIVE","ho":"Visayas\/Mindanao","bc_kp":"SNJOAN","tin_number":"4265130727","zip_code":"5700"},{"phone_number":"(036) 2683241","city":"Kalibo","node_access_lock":"MLB-PH-VM-CAAR-C-KALIB3","code":"vm-caar-b-kalibo_3-673","province":"Aklan","name":"M Lhuillier Kalibo 3","area":"Area C","official_branch_address":"MABINI ST., KALIBO, AKLAN","country":"PH","region":{"code":"vm-caar","meta":{"href":"https:\/\/www.mlepay.com\/api\/v1\/regions\/vm-caar"},"name":"CAAR Region"},"business_hours":"7:00 AM TO 6:00 PM","street_address1":"Salazar Bldg., Mabini St.","id":"673","latlong":"11.705521244245388, 122.36661851406097","meta":{"href":"https:\/\/www.mlepay.com\/api\/v1\/branches\/vm-caar-b-kalibo_3-673"},"status":"ACTIVE","ho":"Visayas\/Mindanao","bc_kp":"KALIB3","tin_number":"004-265-130-621","zip_code":"5600"},{"phone_number":"(032) 253-90-93 \/ (032) 416-80-04","city":"Cebu City","node_access_lock":"MLB-PH-VM-CEBCEN-A-CARBON","code":"vm-cebcen-a-carbon-868","province":"Cebu","name":"M Lhuillier Carbon","area":"Area A","official_branch_address":"COR. PROGRESSO & MANALILI ST. CARBON AREA ERMITA CC","country":"PH","region":{"code":"vm-cebcen","meta":{"href":"https:\/\/www.mlepay.com\/api\/v1\/regions\/vm-cebcen"},"name":"Cebu Central Region"},"business_hours":"NA","street_address1":"D3 Diez Building, Progreso Street corner Manalili Street","id":"868","latlong":"10.292318, 123.898701","meta":{"href":"https:\/\/www.mlepay.com\/api\/v1\/branches\/vm-cebcen-a-carbon-868"},"status":"ACTIVE","ho":"Visayas\/Mindanao","bc_kp":"CARBON","tin_number":"002-394-238-710","zip_code":"6000"},{"phone_number":"032-238-8644","city":"Cebu City","node_access_lock":"MLB-PH-VM-CEBCEN-A-MCBRIO","code":"vm-cebcen-a-city_square-846","province":"Cebu","name":"M Lhuillier City Square","area":"Area A","official_branch_address":"MC CITYSQUARE BLDG.,COR MC BRIIONES AND P.BURGOS ST CEBU CITY","country":"PH","region":{"code":"vm-cebcen","meta":{"href":"https:\/\/www.mlepay.com\/api\/v1\/regions\/vm-cebcen"},"name":"Cebu Central Region"},"business_hours":"8:00 AM TO 7:00 PM","street_address1":"Prince Warehouse M. C. Briones Street","id":"846","latlong":"10.292736, 123.902386","meta":{"href":"https:\/\/www.mlepay.com\/api\/v1\/branches\/vm-cebcen-a-city_square-846"},"status":"ACTIVE","ho":"Visayas\/Mindanao","bc_kp":"MCBRIO","tin_number":"002-394-238-923","zip_code":"6000"},{"phone_number":"4169221","city":"Cebu City","node_access_lock":"MLB-PH-VM-CEBCEN-A-COLONN","code":"vm-cebcen-a-colonnade-34","province":"Cebu","name":"M Lhuillier Colonnade","area":"Area A","official_branch_address":"COLONADE BRANCH, CEBU CITY","country":"PH","region":{"code":"vm-cebcen","meta":{"href":"https:\/\/www.mlepay.com\/api\/v1\/regions\/vm-cebcen"},"name":"Cebu Central Region"},"business_hours":"NA","street_address1":"Colonnade Mall, Oriente","id":"34","latlong":"10.296761, 123.899793","meta":{"href":"https:\/\/www.mlepay.com\/api\/v1\/branches\/vm-cebcen-a-colonnade-34"},"status":"ACTIVE","ho":"Visayas\/Mindanao","bc_kp":"COLONN","tin_number":"002-394-238-328","zip_code":"6000"},{"phone_number":"255-3177\/255-4767","city":"Cebu City","node_access_lock":"MLB-PH-VM-CEBCEN-A-COLON1","code":"vm-cebcen-a-colon_1-29","province":"Cebu","name":"M Lhuillier Colon 1","area":"Area A","official_branch_address":"58 COLON ST","country":"PH","region":{"code":"vm-cebcen","meta":{"href":"https:\/\/www.mlepay.com\/api\/v1\/regions\/vm-cebcen"},"name":"Cebu Central Region"},"business_hours":"NA","street_address1":"#58 Colon St","id":"29","latlong":"10.296647, 123.898894","meta":{"href":"https:\/\/www.mlepay.com\/api\/v1\/branches\/vm-cebcen-a-colon_1-29"},"status":"ACTIVE","ho":"Visayas\/Mindanao","bc_kp":"COLON1","tin_number":"002-394-238-000","zip_code":"6000"},{"phone_number":"032-2542520\/032-4123808","city":"Cebu City","node_access_lock":"MLB-PH-VM-CEBCEN-A-COLON3","code":"vm-cebcen-a-colon_3-30","province":"Cebu","name":"M Lhuillier Colon 3","area":"Area A","official_branch_address":"164-COLON ST KALUBIHAN CC","country":"PH","region":{"code":"vm-cebcen","meta":{"href":"https:\/\/www.mlepay.com\/api\/v1\/regions\/vm-cebcen"},"name":"Cebu Central Region"},"business_hours":"NA","street_address1":"205 Deno Robert Building, Colon Street","id":"30","latlong":"10.297670, 123.901630","meta":{"href":"https:\/\/www.mlepay.com\/api\/v1\/branches\/vm-cebcen-a-colon_3-30"},"status":"ACTIVE","ho":"Visayas\/Mindanao","bc_kp":"COLON3","tin_number":"002-394-238-151 VAT","zip_code":"6000"},{"phone_number":"(02) 412-1200, 412-0935","city":"Cebu City","node_access_lock":"MLB-PH-VM-CEBCEN-A-COLON7","code":"vm-cebcen-a-colon_7-33","province":"Cebu","name":"M Lhuillier Colon 7","area":"Area A","official_branch_address":"ML PARKING LOT, COLON ST. CEBU CITY","country":"PH","region":{"code":"vm-cebcen","meta":{"href":"https:\/\/www.mlepay.com\/api\/v1\/regions\/vm-cebcen"},"name":"Cebu Central Region"},"business_hours":"NA","street_address1":"ML Parking Lot, Corner Mabini St., Parian","id":"33","latlong":"10.297864, 123.903592","meta":{"href":"https:\/\/www.mlepay.com\/api\/v1\/branches\/vm-cebcen-a-colon_7-33"},"status":"ACTIVE","ho":"Visayas\/Mindanao","bc_kp":"COLON7","tin_number":"002-394-238-005","zip_code":"6000"},{"phone_number":"","city":"Cebu","node_access_lock":"MLB-PH-VM-CEBCEN-B-DULJO","code":"vm-cebcen-a-duljo-18","province":"Cebu","name":"M Lhuillier Duljo","area":"Area B","official_branch_address":"","country":"PH","region":{"code":"vm-cebcen","meta":{"href":"https:\/\/www.mlepay.com\/api\/v1\/regions\/vm-cebcen"},"name":"Cebu Central Region"},"business_hours":"NA","street_address1":"98 Spolarium St., Duljo","id":"18","latlong":"10.293708, 123.883492","meta":{"href":"https:\/\/www.mlepay.com\/api\/v1\/branches\/vm-cebcen-a-duljo-18"},"status":"ACTIVE","ho":"Visayas\/Mindanao","bc_kp":"DULJO","tin_number":"","zip_code":"6000"},{"phone_number":"032-2560433","city":"Cebu City","node_access_lock":"MLB-PH-VM-CEBCEN-A-JLUNA1","code":"vm-cebcen-a-juan_luna_1-20","province":"Cebu","name":"M Lhuillier Juan Luna 1","area":"Area A","official_branch_address":"M LHUILLIER BLDG OSMENA BLVD KALUBIHAN CEBU CITY","country":"PH","region":{"code":"vm-cebcen","meta":{"href":"https:\/\/www.mlepay.com\/api\/v1\/regions\/vm-cebcen"},"name":"Cebu Central Region"},"business_hours":"NA","street_address1":"ML Bldg. Osmena Boulevard Brgy. Kalubihan","id":"20","latlong":"10.279939, 123.855877","meta":{"href":"https:\/\/www.mlepay.com\/api\/v1\/branches\/vm-cebcen-a-juan_luna_1-20"},"status":"ACTIVE","ho":"Visayas\/Mindanao","bc_kp":"JLUNA1","tin_number":"002-394-238-076","zip_code":"6000"},{"phone_number":"","city":"Cebu City","node_access_lock":"MLB-PH-VM-CEBCEN-A-JUNGQE","code":"vm-cebcen-a-junquera-37","province":"Cebu","name":"M Lhuillier Junquera","area":"Area A","official_branch_address":"","country":"PH","region":{"code":"vm-cebcen","meta":{"href":"https:\/\/www.mlepay.com\/api\/v1\/regions\/vm-cebcen"},"name":"Cebu Central Region"},"business_hours":"NA","street_address1":"48 Corner Sanciangko and Junquera Sts.","id":"37","latlong":"10.300712, 123.898982","meta":{"href":"https:\/\/www.mlepay.com\/api\/v1\/branches\/vm-cebcen-a-junquera-37"},"status":"ACTIVE","ho":"Visayas\/Mindanao","bc_kp":"JUNGQE","tin_number":"","zip_code":"6000"},{"phone_number":"(032) 239-7437","city":"Cebu City","node_access_lock":"MLB-PH-VM-CEBCEN-A-LABUCA","code":"vm-cebcen-a-labucay-750","province":"Cebu","name":"M Lhuillier Labucay","area":"Area A","official_branch_address":"E. LABUCAY BLDG.,COR. MAGALLANES & CALDERON STS. CEBU CITY","country":"PH","region":{"code":"vm-cebcen","meta":{"href":"https:\/\/www.mlepay.com\/api\/v1\/regions\/vm-cebcen"},"name":"Cebu Central Region"},"business_hours":"NA","street_address1":"E.Labucay Bldg. Corner Magallanes and Calderon Streets","id":"750","latlong":"10.293797, 123.898232","meta":{"href":"https:\/\/www.mlepay.com\/api\/v1\/branches\/vm-cebcen-a-labucay-750"},"status":"ACTIVE","ho":"Visayas\/Mindanao","bc_kp":"LABUCA","tin_number":"004-265-130-786","zip_code":"6000"},{"phone_number":"032-2367658","city":"Cebu City","node_access_lock":"MLB-PH-VM-CEBCEN-A-PASIL","code":"vm-cebcen-a-pasil-40","province":"Cebu","name":"M Lhuillier Pasil","area":"Area A","official_branch_address":"3-E TUPAS ST. SUBA, CEBU CITY ","country":"PH","region":{"code":"vm-cebcen","meta":{"href":"https:\/\/www.mlepay.com\/api\/v1\/regions\/vm-cebcen"},"name":"Cebu Central Region"},"business_hours":"NA","street_address1":"3-E Tupas Street, Pasil","id":"40","latlong":"10.292572, 123.893010","meta":{"href":"https:\/\/www.mlepay.com\/api\/v1\/branches\/vm-cebcen-a-pasil-40"},"status":"ACTIVE","ho":"Visayas\/Mindanao","bc_kp":"PASIL","tin_number":"002-394-238-310 VAT","zip_code":"6000"},{"phone_number":"","city":"Cebu","node_access_lock":"MLB-PH-VM-CEBCEN-B-INAYAW","code":"vm-cebcen-b-inayawan-122","province":"Cebu","name":"M Lhuillier Inayawan","area":"Area B","official_branch_address":"","country":"PH","region":{"code":"vm-cebcen","meta":{"href":"https:\/\/www.mlepay.com\/api\/v1\/regions\/vm-cebcen"},"name":"Cebu Central Region"},"business_hours":"NA","street_address1":"F. Jaca St.Inayawan Pardo","id":"122","latlong":"10.270596, 123.856600","meta":{"href":"https:\/\/www.mlepay.com\/api\/v1\/branches\/vm-cebcen-b-inayawan-122"},"status":"ACTIVE","ho":"Visayas\/Mindanao","bc_kp":"INAYAW","tin_number":"","zip_code":"6000"},{"phone_number":"","city":"Cebu","node_access_lock":"MLB-PH-VM-CEBCEN-B-MAMBA1","code":"vm-cebcen-b-mambaling_1-24","province":"Cebu","name":"M Lhuillier Mambaling 1","area":"Area B","official_branch_address":"","country":"PH","region":{"code":"vm-cebcen","meta":{"href":"https:\/\/www.mlepay.com\/api\/v1\/regions\/vm-cebcen"},"name":"Cebu Central Region"},"business_hours":"NA","street_address1":"Cebu South Road, Mambaling","id":"24","latlong":"10.291095, 123.877362","meta":{"href":"https:\/\/www.mlepay.com\/api\/v1\/branches\/vm-cebcen-b-mambaling_1-24"},"status":"ACTIVE","ho":"Visayas\/Mindanao","bc_kp":"MAMBA1","tin_number":"","zip_code":"6000"},{"phone_number":"(032) 262-5184","city":"Cebu","node_access_lock":"MLB-PH-VM-CEBCEN-B-SIT","code":"vm-cebcen-b-sit-27","province":"Cebu","name":"M Lhuillier SIT","area":"Area B","official_branch_address":"N. BACALSO AVE COR LATRESSAS ST. CEBU CITY","country":"PH","region":{"code":"vm-cebcen","meta":{"href":"https:\/\/www.mlepay.com\/api\/v1\/regions\/vm-cebcen"},"name":"Cebu Central Region"},"business_hours":"NA","street_address1":"S.I.T. Bldg., N. Bacalso Avenue","id":"27","latlong":"10.295849, 123.883740","meta":{"href":"https:\/\/www.mlepay.com\/api\/v1\/branches\/vm-cebcen-b-sit-27"},"status":"ACTIVE","ho":"Visayas\/Mindanao","bc_kp":"SIT","tin_number":"002-394-238-329","zip_code":"6000"},{"phone_number":"(032) 412-3330","city":"Cebu","node_access_lock":"MLB-PH-VM-CEBCEN-D-CAPITL","code":"vm-cebcen-c-capitol-325","province":"Cebu","name":"M Lhuillier Capitol","area":"Area D","official_branch_address":"CORNER EAST CAPITOL ROAD & ESCARIO ST., CEBU CITY","country":"PH","region":{"code":"vm-cebcen","meta":{"href":"https:\/\/www.mlepay.com\/api\/v1\/regions\/vm-cebcen"},"name":"Cebu Central Region"},"business_hours":"NA","street_address1":"Corner East Capitol Road, Escario St.","id":"325","latlong":"10.316364, 123.891722","meta":{"href":"https:\/\/www.mlepay.com\/api\/v1\/branches\/vm-cebcen-c-capitol-325"},"status":"ACTIVE","ho":"Visayas\/Mindanao","bc_kp":"CAPITL","tin_number":"002-705-354-0073","zip_code":"6000"},{"phone_number":"09479990735","city":"Cebu","node_access_lock":"MLB-PH-VM-CEBCEN-D-GORORD","code":"vm-cebcen-c-gorordo-47","province":"Cebu","name":"M Lhuillier Gorordo","area":"Area D","official_branch_address":"74 GORORDO AVENUE CEBU CITY","country":"PH","region":{"code":"vm-cebcen","meta":{"href":"https:\/\/www.mlepay.com\/api\/v1\/regions\/vm-cebcen"},"name":"Cebu Central Region"},"business_hours":"NA","street_address1":"Gorordo Avenue. Ground Floor #74","id":"47","latlong":"10.318903939720078, 123.89972425997257","meta":{"href":"https:\/\/www.mlepay.com\/api\/v1\/branches\/vm-cebcen-c-gorordo-47"},"status":"ACTIVE","ho":"Visayas\/Mindanao","bc_kp":"GORORD","tin_number":"002-438-380-007","zip_code":"6000"},{"phone_number":"032-2540813","city":"Cebu","node_access_lock":"MLB-PH-VM-CEBCEN-D-RAMOS1","code":"vm-cebcen-c-ramos_1-54","province":"Cebu","name":"M Lhuillier Ramos 1","area":"Area D","official_branch_address":"F. RAMOS ST. SANTA CRUZ, CEBU CITY","country":"PH","region":{"code":"vm-cebcen","meta":{"href":"https:\/\/www.mlepay.com\/api\/v1\/regions\/vm-cebcen"},"name":"Cebu Central Region"},"business_hours":"NA","street_address1":"F. Ramos St.","id":"54","latlong":"10.307455, 123.896057","meta":{"href":"https:\/\/www.mlepay.com\/api\/v1\/branches\/vm-cebcen-c-ramos_1-54"},"status":"ACTIVE","ho":"Visayas\/Mindanao","bc_kp":"RAMOS1","tin_number":"002-394-238-305 VAT","zip_code":"6000"},{"phone_number":"","city":"Cebu","node_access_lock":"MLB-PH-VM-CEBCEN-D-WATERJ","code":"vm-cebcen-c-waterfront_showroom-562","province":"Cebu","name":"M Lhuillier Waterfront Showroom","area":"Area D","official_branch_address":"","country":"PH","region":{"code":"vm-cebcen","meta":{"href":"https:\/\/www.mlepay.com\/api\/v1\/regions\/vm-cebcen"},"name":"Cebu Central Region"},"business_hours":"NA","street_address1":"Waterfront, Salinas Drive, Lahug","id":"562","latlong":"10.326645, 123.905321","meta":{"href":"https:\/\/www.mlepay.com\/api\/v1\/branches\/vm-cebcen-c-waterfront_showroom-562"},"status":"ACTIVE","ho":"Visayas\/Mindanao","bc_kp":"WATERJ","tin_number":"","zip_code":"6000"},{"phone_number":"0324163357","city":"Cebu City","node_access_lock":"MLB-PH-VM-CEBCEN-F-APAS","code":"vm-cebcen-d-apas-64","province":"Cebu","name":"M Lhuillier Apas","area":"Area F","official_branch_address":"1st st lapulapu avenue brgy apas cebu city ","country":"PH","region":{"code":"vm-cebcen","meta":{"href":"https:\/\/www.mlepay.com\/api\/v1\/regions\/vm-cebcen"},"name":"Cebu Central Region"},"business_hours":"NA","street_address1":"Brgy. Apas, Lahug","id":"64","latlong":"10.338118, 123.904783","meta":{"href":"https:\/\/www.mlepay.com\/api\/v1\/branches\/vm-cebcen-d-apas-64"},"status":"ACTIVE","ho":"Visayas\/Mindanao","bc_kp":"APAS","tin_number":"002-394-238-477","zip_code":"6000"},{"phone_number":"(032) 416-6263","city":"Cebu","node_access_lock":"MLB-PH-VM-CEBCEN-A-RECLAM","code":"vm-cebcen-d-nra-53","province":"Cebu","name":"M Lhuillier NRA","area":"Area A","official_branch_address":"ML BLDG B BENEDICTO ST NRA CEBU","country":"PH","region":{"code":"vm-cebcen","meta":{"href":"https:\/\/www.mlepay.com\/api\/v1\/regions\/vm-cebcen"},"name":"Cebu Central Region"},"business_hours":"NA","street_address1":"Cor. B. Benedicto St. & 13th Avenue North Reclamation Area","id":"53","latlong":"10.304148, 123.909881","meta":{"href":"https:\/\/www.mlepay.com\/api\/v1\/branches\/vm-cebcen-d-nra-53"},"status":"ACTIVE","ho":"Visayas\/Mindanao","bc_kp":"RECLAM","tin_number":"002394238373","zip_code":"6000"},{"phone_number":"","city":"Cebu","node_access_lock":"MLB-PH-VM-CEBCEN-D-SMCEJE","code":"vm-cebcen-d-sm_cebu_showroom-3","province":"Cebu","name":"M Lhuillier SM Cebu Showroom","area":"Area D","official_branch_address":"","country":"PH","region":{"code":"vm-cebcen","meta":{"href":"https:\/\/www.mlepay.com\/api\/v1\/regions\/vm-cebcen"},"name":"Cebu Central Region"},"business_hours":"NA","street_address1":"53 2nd level SM-Cebu North Reclamation","id":"3","latlong":"10.311961, 123.918489","meta":{"href":"https:\/\/www.mlepay.com\/api\/v1\/branches\/vm-cebcen-d-sm_cebu_showroom-3"},"status":"ACTIVE","ho":"Visayas\/Mindanao","bc_kp":"SMCEJE","tin_number":"","zip_code":"6000"},{"phone_number":"(032) 232-4325","city":"Cebu City","node_access_lock":"MLB-PH-VM-CEBCEN-F-UCBANI","code":"vm-cebcen-d-uc_banilad-73","province":"Cebu","name":"M Lhuillier UC Banilad","area":"Area F","official_branch_address":"GOV. CUENCO AVE., KASAMBAGAN, CEBU CITY","country":"PH","region":{"code":"vm-cebcen","meta":{"href":"https:\/\/www.mlepay.com\/api\/v1\/regions\/vm-cebcen"},"name":"Cebu Central Region"},"business_hours":"8:00 AM TO 8:00 AM","street_address1":"UC Bldg. Infront of Gaisano Country Mall Banilad","id":"73","latlong":"10.338186587103571, 123.91188467990105","meta":{"href":"https:\/\/www.mlepay.com\/api\/v1\/branches\/vm-cebcen-d-uc_banilad-73"},"status":"ACTIVE","ho":"Visayas\/Mindanao","bc_kp":"UCBANI","tin_number":"002-394-238-320","zip_code":"6000"},{"phone_number":"+6309479990825","city":"Lapu-Lapu City","node_access_lock":"MLB-PH-VM-CEBNOR-A-LAPUL2","code":"vm-cebnor-a-lapu_lapu_2-67","province":"Cebu","name":"M Lhuillier Lapu Lapu 2","area":"Area A","official_branch_address":"30 S OSMENA ST GUN-OB, LAPU-LAPU CITY","country":"PH","region":{"code":"vm-cebnor","meta":{"href":"https:\/\/www.mlepay.com\/api\/v1\/regions\/vm-cebnor"},"name":"Cebu North Region"},"business_hours":"NA","street_address1":"#30 S. Osmena St","id":"67","latlong":"10.310585, 123.949747","meta":{"href":"https:\/\/www.mlepay.com\/api\/v1\/branches\/vm-cebnor-a-lapu_lapu_2-67"},"status":"ACTIVE","ho":"Visayas\/Mindanao","bc_kp":"LAPUL2","tin_number":"002-394-238-129 VAT","zip_code":"6015"},{"phone_number":"032 346-6687","city":"Consolacion","node_access_lock":"MLB-PH-VM-CEBNOR-F-CONSO1","code":"vm-cebnor-c-consolacion_1-80","province":"Cebu","name":"M Lhuillier Consolacion 1","area":"Area F","official_branch_address":"POBLACION OCCIDENTAL CONSOLACION CEBU","country":"PH","region":{"code":"vm-cebnor","meta":{"href":"https:\/\/www.mlepay.com\/api\/v1\/regions\/vm-cebnor"},"name":"Cebu North Region"},"business_hours":"NA","street_address1":"Poblacion, Consolacion","id":"80","latlong":"10.373690, 123.954837","meta":{"href":"https:\/\/www.mlepay.com\/api\/v1\/branches\/vm-cebnor-c-consolacion_1-80"},"status":"ACTIVE","ho":"Visayas\/Mindanao","bc_kp":"CONSO1","tin_number":"002-394-238-075","zip_code":"6001"},{"phone_number":"09479992648","city":"Danao","node_access_lock":"MLB-PH-VM-CEBNOR-C-LASPAL","code":"vm-cebnor-c-las_palmas-930","province":"Cebu","name":"M Lhuillier Las Palmas","area":"Area C","official_branch_address":"national rd sabang danao city","country":"PH","region":{"code":"vm-cebnor","meta":{"href":"https:\/\/www.mlepay.com\/api\/v1\/regions\/vm-cebnor"},"name":"Cebu North Region"},"business_hours":"7:00 AM TO 6:00 PM","street_address1":"Barangay Sabang","id":"930","latlong":"10.509079137166108, 124.02216911315918","meta":{"href":"https:\/\/www.mlepay.com\/api\/v1\/branches\/vm-cebnor-c-las_palmas-930"},"status":"ACTIVE","ho":"Visayas\/Mindanao","bc_kp":"LASPAL","tin_number":"002-438-380-252","zip_code":"6004"},{"phone_number":"032-4248299","city":"Liloan","node_access_lock":"MLB-PH-VM-CEBNOR-F-YATI","code":"vm-cebnor-c-yati-943","province":"Cebu","name":"M Lhuillier Yati","area":"Area F","official_branch_address":"YATI LILOAN CEBU","country":"PH","region":{"code":"vm-cebnor","meta":{"href":"https:\/\/www.mlepay.com\/api\/v1\/regions\/vm-cebnor"},"name":"Cebu North Region"},"business_hours":"NA","street_address1":"Yati","id":"943","latlong":"10.391691, 123.985171","meta":{"href":"https:\/\/www.mlepay.com\/api\/v1\/branches\/vm-cebnor-c-yati-943"},"status":"ACTIVE","ho":"Visayas\/Mindanao","bc_kp":"YATI","tin_number":"002-394-238-804","zip_code":"6002"},{"phone_number":"032-2388544","city":"","node_access_lock":"MLB-PH-VM-CEBSOU-A-LARAY","code":"vm-cebsou-a-laray-0","province":"Cebu","name":"M Lhuillier Laray","area":"Area A","official_branch_address":"2179 Laray, San Roque, Talisay City, Cebu","country":"PH","region":{"code":"vm-cebsou","meta":{"href":"https:\/\/www.mlepay.com\/api\/v1\/regions\/vm-cebsou"},"name":"Cebu South Region"},"business_hours":"8:00 AM TO 6:00 PM","street_address1":"2179 Laray, San Roque, Talisay City","id":"990","latlong":"10.258949373877373, 123.8581670101928","meta":{"href":"https:\/\/www.mlepay.com\/api\/v1\/branches\/vm-cebsou-a-laray-0"},"status":"ACTIVE","ho":"Visayas\/Mindanao","bc_kp":"LARAY","tin_number":"002-438-380-230","zip_code":"6000"},{"phone_number":"(032) 490-0568","city":"Minglanilla","node_access_lock":"MLB-PH-VM-CEBSOU-D-MINGL2","code":"vm-cebsou-b-minglanilla_2-666","province":"Cebu","name":"M Lhuillier Minglanilla 2","area":"Area D","official_branch_address":"LJ BLDG. POBLACION WARD 3, MINGLANILLA, CEBU","country":"PH","region":{"code":"vm-cebsou","meta":{"href":"https:\/\/www.mlepay.com\/api\/v1\/regions\/vm-cebsou"},"name":"Cebu South Region"},"business_hours":"8:00 AM TO 6:00 PM","street_address1":"LJ-II Bldg. Ward 3","id":"666","latlong":"10.24590026192857, 123.79684209823608","meta":{"href":"https:\/\/www.mlepay.com\/api\/v1\/branches\/vm-cebsou-b-minglanilla_2-666"},"status":"ACTIVE","ho":"Visayas\/Mindanao","bc_kp":"MINGL2","tin_number":"004-265-130-681","zip_code":"6046"},{"phone_number":"0322720021","city":"Minglanilla","node_access_lock":"MLB-PH-VM-CEBSOU-D-TUNGKO","code":"vm-cebsou-b-tungkop-816","province":"Cebu","name":"M Lhuillier Tungkop","area":"Area D","official_branch_address":"BRGY TUNGKOP MINGLANILLA CEBU","country":"PH","region":{"code":"vm-cebsou","meta":{"href":"https:\/\/www.mlepay.com\/api\/v1\/regions\/vm-cebsou"},"name":"Cebu South Region"},"business_hours":"8:00 AM TO 5:00 PM","street_address1":"Brgy. Tungkop","id":"816","latlong":"10.237021071621486, 123.78157496452332","meta":{"href":"https:\/\/www.mlepay.com\/api\/v1\/branches\/vm-cebsou-b-tungkop-816"},"status":"ACTIVE","ho":"Visayas\/Mindanao","bc_kp":"TUNGKO","tin_number":"004-265-130-984","zip_code":""},{"phone_number":"09479991060","city":"Tabuelan","node_access_lock":"MLB-PH-VM-CEBSOU-F-TABUEL","code":"vm-cebsou-c-tabuelan-117","province":"Cebu","name":"M Lhuillier Tabuelan","area":"Area F","official_branch_address":"POBLACION, TABUELAN, CEBU","country":"PH","region":{"code":"vm-cebsou","meta":{"href":"https:\/\/www.mlepay.com\/api\/v1\/regions\/vm-cebsou"},"name":"Cebu South Region"},"business_hours":"NA","street_address1":"Ybanez St.","id":"117","latlong":"10.660607953624762, 123.90380859375","meta":{"href":"https:\/\/www.mlepay.com\/api\/v1\/branches\/vm-cebsou-c-tabuelan-117"},"status":"ACTIVE","ho":"Visayas\/Mindanao","bc_kp":"TABUEL","tin_number":"002-394-238-356","zip_code":"6044"},{"phone_number":"(032) 486-9145","city":"Sibonga","node_access_lock":"MLB-PH-VM-CEBSOU-D-SIBONG","code":"vm-cebsou-d-sibonga-104","province":"Cebu","name":"M Lhuillier Sibonga","area":"Area D","official_branch_address":"","country":"PH","region":{"code":"vm-cebsou","meta":{"href":"https:\/\/www.mlepay.com\/api\/v1\/regions\/vm-cebsou"},"name":"Cebu South Region"},"business_hours":"NA","street_address1":"599-A Pob. Sibonga","id":"104","latlong":"10.017462, 123.615995","meta":{"href":"https:\/\/www.mlepay.com\/api\/v1\/branches\/vm-cebsou-d-sibonga-104"},"status":"ACTIVE","ho":"Visayas\/Mindanao","bc_kp":"SIBONG","tin_number":"002-438-380-036nv","zip_code":"6020"},{"phone_number":"033-333-0103","city":"Leganes","node_access_lock":"MLB-PH-VM-GUIILO-B-LEGANE","code":"vm-guiilo-b-leganes-563","province":"Iloilo","name":"M Lhuillier Leganes","area":"Area B","official_branch_address":"GUSTILO ST., LEGANES,ILOILO","country":"PH","region":{"code":"vm-guiilo","meta":{"href":"https:\/\/www.mlepay.com\/api\/v1\/regions\/vm-guiilo"},"name":"Guimaras-Iloilo Region"},"business_hours":"7:00 AM TO 6:00 PM","street_address1":"Gustilo St., Poblacion Leganes, Iloilo","id":"563","latlong":"10.785840748553344, 122.5869083404541","meta":{"href":"https:\/\/www.mlepay.com\/api\/v1\/branches\/vm-guiilo-b-leganes-563"},"status":"ACTIVE","ho":"Visayas\/Mindanao","bc_kp":"LEGANE","tin_number":"004-265-130-325","zip_code":"5003"},{"phone_number":"034-703-2404","city":"Bacolod","node_access_lock":"MLB-PH-VM-NEGOCC-A-LACSON","code":"vm-negocc-a-lacson-0","province":"Negros Occidental","name":"M Lhuillier Lacson","area":"Area A","official_branch_address":"6TH 7TH LACSON ST VIRGEN SANG BARANGAY BLDG BACOLOD CITY","country":"PH","region":{"code":"vm-negocc","meta":{"href":"https:\/\/www.mlepay.com\/api\/v1\/regions\/vm-negocc"},"name":"Negros Occidental Region"},"business_hours":"NA","street_address1":"Lacson Street","id":"925","latlong":"10.675693, 122.952929","meta":{"href":"https:\/\/www.mlepay.com\/api\/v1\/branches\/vm-negocc-a-lacson-0"},"status":"ACTIVE","ho":"Visayas\/Mindanao","bc_kp":"LACSON","tin_number":"002-438-380-237","zip_code":"6100"},{"phone_number":"035 422 7409","city":"Dumaguete","node_access_lock":"MLB-PH-VM-NEGORISIQ-A-DUMAG1","code":"vm-negorisiq-a-dumaguete_1-147","province":"Negros Oriental","name":"M Lhuillier Dumaguete 1","area":"Area A","official_branch_address":"COR. REAL & INDEPENDENCIA ST. DUMAGUETE CITY,NEG OR","country":"PH","region":{"code":"vm-negorisiq","meta":{"href":"https:\/\/www.mlepay.com\/api\/v1\/regions\/vm-negorisiq"},"name":"Negros Oriental\/Siquijor Region"},"business_hours":"7:00 AM TO 7:00 PM","street_address1":"Real cor. Independencia Sts.","id":"147","latlong":"9.305174, 123.305489","meta":{"href":"https:\/\/www.mlepay.com\/api\/v1\/branches\/vm-negorisiq-a-dumaguete_1-147"},"status":"ACTIVE","ho":"Visayas\/Mindanao","bc_kp":"DUMAG1","tin_number":"002394238704","zip_code":"6200"},{"phone_number":"09479990708","city":"Dumaguete","node_access_lock":"MLB-PH-VM-NEGORISIQ-A-DUMAG2","code":"vm-negorisiq-a-dumaguete_2-149","province":"Negros Oriental","name":"M Lhuillier Dumaguete 2","area":"Area A","official_branch_address":"16 LUPEGA Bldg. Dr V Locsin St Dumaguete City Neg Or","country":"PH","region":{"code":"vm-negorisiq","meta":{"href":"https:\/\/www.mlepay.com\/api\/v1\/regions\/vm-negorisiq"},"name":"Negros Oriental\/Siquijor Region"},"business_hours":"7:00 AM TO 7:00 PM","street_address1":"Lupega Bldg. Dr. V. Locsin St.","id":"149","latlong":"9.307057, 123.306979","meta":{"href":"https:\/\/www.mlepay.com\/api\/v1\/branches\/vm-negorisiq-a-dumaguete_2-149"},"status":"ACTIVE","ho":"Visayas\/Mindanao","bc_kp":"DUMAG2","tin_number":"002-394-238-703","zip_code":"6200"},{"phone_number":"09479990709","city":"Dumaguete City","node_access_lock":"MLB-PH-VM-NEGORISIQ-A-DUMAG3","code":"vm-negorisiq-a-dumaguete_3-151","province":"Negros Oriental","name":"M Lhuillier Dumaguete 3","area":"Area A","official_branch_address":"ALDEA BLDG SAN JUAN ST COR PERDICES ST DUMAGUETE CITY","country":"PH","region":{"code":"vm-negorisiq","meta":{"href":"https:\/\/www.mlepay.com\/api\/v1\/regions\/vm-negorisiq"},"name":"Negros Oriental\/Siquijor Region"},"business_hours":"8:00 AM TO 8:00 AM","street_address1":"Aldea Bldg., San Juan cor Perdeices St","id":"151","latlong":"9.309292147796832, 123.30783247947693","meta":{"href":"https:\/\/www.mlepay.com\/api\/v1\/branches\/vm-negorisiq-a-dumaguete_3-151"},"status":"ACTIVE","ho":"Visayas\/Mindanao","bc_kp":"DUMAG3","tin_number":"002-394-238-701","zip_code":"6200"},{"phone_number":"(035) 4220101","city":"Dumaguete City","node_access_lock":"MLB-PH-VM-NEGORISIQ-A-DUMAG4","code":"vm-negorisiq-a-dumaguete_4-152","province":"Negros Oriental","name":"M Lhuillier Dumaguete 4","area":"Area A","official_branch_address":"Pinili St., Dumaguete City","country":"PH","region":{"code":"vm-negorisiq","meta":{"href":"https:\/\/www.mlepay.com\/api\/v1\/regions\/vm-negorisiq"},"name":"Negros Oriental\/Siquijor Region"},"business_hours":"7:00 AM TO 7:00 PM","street_address1":"Acias Pinili St., Dumaguete City","id":"152","latlong":"9.304073, 123.306605","meta":{"href":"https:\/\/www.mlepay.com\/api\/v1\/branches\/vm-negorisiq-a-dumaguete_4-152"},"status":"ACTIVE","ho":"Visayas\/Mindanao","bc_kp":"DUMAG4","tin_number":"002-394-238-700","zip_code":"6200"},{"phone_number":"09479990711","city":"Dumaguete City","node_access_lock":"MLB-PH-VM-NEGORISIQ-A-DUMAG5","code":"vm-negorisiq-a-dumaguete_5-853","province":"Negros Oriental","name":"M Lhuillier Dumaguete 5","area":"Area A","official_branch_address":"ANG TAY BLDG.,CLON ST DUMAGUETE CITY NEGROS ORIENTAL","country":"PH","region":{"code":"vm-negorisiq","meta":{"href":"https:\/\/www.mlepay.com\/api\/v1\/regions\/vm-negorisiq"},"name":"Negros Oriental\/Siquijor Region"},"business_hours":"7:00 AM TO 10:00 PM","street_address1":"Colon Corner Perdices St.","id":"853","latlong":"9.304603, 123.308024","meta":{"href":"https:\/\/www.mlepay.com\/api\/v1\/branches\/vm-negorisiq-a-dumaguete_5-853"},"status":"ACTIVE","ho":"Visayas\/Mindanao","bc_kp":"DUMAG5","tin_number":"002-394-238-586","zip_code":"6200"},{"phone_number":"(035) 422 - 0120","city":"Dumaguete City","node_access_lock":"MLB-PH-VM-NEGORISIQ-A-DUMAG6","code":"vm-negorisiq-a-dumaguete_6-806","province":"Negros Oriental","name":"M Lhuillier Dumaguete 6","area":"Area A","official_branch_address":"Yala at Robinson bldg. unit 2 SouthRoad, Calindagan, Dumaguete City","country":"PH","region":{"code":"vm-negorisiq","meta":{"href":"https:\/\/www.mlepay.com\/api\/v1\/regions\/vm-negorisiq"},"name":"Negros Oriental\/Siquijor Region"},"business_hours":"8:00 AM TO 8:00 PM","street_address1":"Calindagan Dumaguete City","id":"806","latlong":"9.299385,  123.303416","meta":{"href":"https:\/\/www.mlepay.com\/api\/v1\/branches\/vm-negorisiq-a-dumaguete_6-806"},"status":"ACTIVE","ho":"Visayas\/Mindanao","bc_kp":"DUMAG6","tin_number":"004-265-130-952","zip_code":"6200"},{"phone_number":"09479992504","city":"Dumaguete City","node_access_lock":"MLB-PH-VM-NEGORISIQ-C-DUMAG7","code":"vm-negorisiq-a-dumaguete_7-972","province":"Negros Oriental","name":"M Lhuillier Dumaguete 7","area":"Area C","official_branch_address":"COR. MA. CRISTINA @ SAN JOSE ST DUMAGUETE CITY NEG OR","country":"PH","region":{"code":"vm-negorisiq","meta":{"href":"https:\/\/www.mlepay.com\/api\/v1\/regions\/vm-negorisiq"},"name":"Negros Oriental\/Siquijor Region"},"business_hours":"8:00 AM TO 7:00 PM","street_address1":"Cor.Ma.Cristina and San Jose St.,Dumaguete City","id":"972","latlong":"9.308267, 123.306180","meta":{"href":"https:\/\/www.mlepay.com\/api\/v1\/branches\/vm-negorisiq-a-dumaguete_7-972"},"status":"ACTIVE","ho":"Visayas\/Mindanao","bc_kp":"DUMAG7","tin_number":"002-438-380-208","zip_code":"6200"},{"phone_number":"(035) 422-0225","city":"Dumaguete","node_access_lock":"MLB-PH-VM-NEGORISIQ-C-DUMAG8","code":"vm-negorisiq-a-dumaguete_8-974","province":"Negros Oriental","name":"M Lhuillier Dumaguete 8","area":"Area C","official_branch_address":"FRONTING PROVINCIAL HOSPITAL DARO, DUMAGUETE CITY, NEG.OR.","country":"PH","region":{"code":"vm-negorisiq","meta":{"href":"https:\/\/www.mlepay.com\/api\/v1\/regions\/vm-negorisiq"},"name":"Negros Oriental\/Siquijor Region"},"business_hours":"7:00 AM TO 8:00 PM","street_address1":"North National HI-way,Daro, Dumaguete City","id":"974","latlong":"9.321595,  123.299189","meta":{"href":"https:\/\/www.mlepay.com\/api\/v1\/branches\/vm-negorisiq-a-dumaguete_8-974"},"status":"ACTIVE","ho":"Visayas\/Mindanao","bc_kp":"DUMAG8","tin_number":"002-438-380-219","zip_code":"6200"},{"phone_number":"09479992730","city":"Dumaguete City","node_access_lock":"MLB-PH-VM-NEGORISIQ-C-STPAUL","code":"vm-negorisiq-a-st_paul-0","province":"Negros Oriental","name":"M Lhuillier St. Paul","area":"Area C","official_branch_address":"NORTH NATIONAL ROAD BANTAYAN DGTE CITY NEG OR","country":"PH","region":{"code":"vm-negorisiq","meta":{"href":"https:\/\/www.mlepay.com\/api\/v1\/regions\/vm-negorisiq"},"name":"Negros Oriental\/Siquijor Region"},"business_hours":"7:00 AM TO 8:00 PM","street_address1":"North National HI-way,Bantayan,Dumaguete City","id":"975","latlong":"9.326317,  123.297794","meta":{"href":"https:\/\/www.mlepay.com\/api\/v1\/branches\/vm-negorisiq-a-st_paul-0"},"status":"ACTIVE","ho":"Visayas\/Mindanao","bc_kp":"STPAUL","tin_number":"002-438-380-251","zip_code":"6200"},{"phone_number":"09479992243","city":"Ayungon","node_access_lock":"MLB-PH-VM-NEGORISIQ-B-AYUNGO","code":"vm-negorisiq-b-ayungon-808","province":"Negros Oriental","name":"M Lhuillier Ayungon","area":"Area B","official_branch_address":"POBLACION AYUNGON NEGROS ORIENTAL","country":"PH","region":{"code":"vm-negorisiq","meta":{"href":"https:\/\/www.mlepay.com\/api\/v1\/regions\/vm-negorisiq"},"name":"Negros Oriental\/Siquijor Region"},"business_hours":"8:00 AM TO 6:00 PM","street_address1":"National Highway, Proper Poblacion, Ayungon, Negros Oriental","id":"808","latlong":"9.851063,  123.139739","meta":{"href":"https:\/\/www.mlepay.com\/api\/v1\/branches\/vm-negorisiq-b-ayungon-808"},"status":"ACTIVE","ho":"Visayas\/Mindanao","bc_kp":"AYUNGO","tin_number":"004-265-130-915","zip_code":"6210"},{"phone_number":"035-402-8494","city":"Bais City","node_access_lock":"MLB-PH-VM-NEGORISIQ-B-BAIS","code":"vm-negorisiq-b-bais_1-144","province":"Negros Oriental","name":"M Lhuillier Bais 1","area":"Area B","official_branch_address":"QUEZON ST., BAIS CITY, NEG OR","country":"PH","region":{"code":"vm-negorisiq","meta":{"href":"https:\/\/www.mlepay.com\/api\/v1\/regions\/vm-negorisiq"},"name":"Negros Oriental\/Siquijor Region"},"business_hours":"7:00 AM TO 9:00 PM","street_address1":"Nat'l H-Way, Quezon St.,","id":"144","latlong":"9.589621097631047, 123.12104880809784","meta":{"href":"https:\/\/www.mlepay.com\/api\/v1\/branches\/vm-negorisiq-b-bais_1-144"},"status":"ACTIVE","ho":"Visayas\/Mindanao","bc_kp":"BAIS","tin_number":"002-394-238-696","zip_code":"6206"},{"phone_number":"035-402-2055","city":"Bais City","node_access_lock":"MLB-PH-VM-NEGORISIQ-B-BAIS2","code":"vm-negorisiq-b-bais_2-584","province":"Negros Oriental","name":"M Lhuillier Bais 2","area":"Area B","official_branch_address":"NATIONAL HIGHWAY, HANGYAD, BAIS CITY, NEGROS ORIENTAL","country":"PH","region":{"code":"vm-negorisiq","meta":{"href":"https:\/\/www.mlepay.com\/api\/v1\/regions\/vm-negorisiq"},"name":"Negros Oriental\/Siquijor Region"},"business_hours":"8:00 AM TO 6:00 PM","street_address1":"Barangay Hangyad,National Hi-way","id":"584","latlong":"9.597592,  123.116917","meta":{"href":"https:\/\/www.mlepay.com\/api\/v1\/branches\/vm-negorisiq-b-bais_2-584"},"status":"ACTIVE","ho":"Visayas\/Mindanao","bc_kp":"BAIS2","tin_number":"004-265-130-393","zip_code":"6206"},{"phone_number":"09479990516","city":"Bindoy","node_access_lock":"MLB-PH-VM-NEGORISIQ-B-BINDOY","code":"vm-negorisiq-b-bindoy-0","province":"Negros Oriental","name":"M Lhuillier Bindoy","area":"Area B","official_branch_address":"POBLACION, BINDOY NEG.OR.","country":"PH","region":{"code":"vm-negorisiq","meta":{"href":"https:\/\/www.mlepay.com\/api\/v1\/regions\/vm-negorisiq"},"name":"Negros Oriental\/Siquijor Region"},"business_hours":"8:00 AM TO 6:00 PM","street_address1":"Poblacion (Payabon), Bindoy","id":"16","latlong":"9.760684, 123.141978","meta":{"href":"https:\/\/www.mlepay.com\/api\/v1\/branches\/vm-negorisiq-b-bindoy-0"},"status":"ACTIVE","ho":"Visayas\/Mindanao","bc_kp":"BINDOY","tin_number":"002-438-380-289","zip_code":"6209"},{"phone_number":"+639479990080","city":"Canlaon","node_access_lock":"MLB-PH-VM-NEGORISIQ-B-CANLAO","code":"vm-negorisiq-b-canlaon_1-146","province":"Negros Oriental","name":"M Lhuillier Canlaon 1","area":"Area B","official_branch_address":"BLOCK 3, NEW BUS TERMINAL, CANLAON CITY, NEG. OR.","country":"PH","region":{"code":"vm-negorisiq","meta":{"href":"https:\/\/www.mlepay.com\/api\/v1\/regions\/vm-negorisiq"},"name":"Negros Oriental\/Siquijor Region"},"business_hours":"7:00 AM TO 5:00 PM","street_address1":"Block 3 New Bus Terminal, Canlaon City","id":"146","latlong":"10.384481, 123.226876","meta":{"href":"https:\/\/www.mlepay.com\/api\/v1\/branches\/vm-negorisiq-b-canlaon_1-146"},"status":"ACTIVE","ho":"Visayas\/Mindanao","bc_kp":"CANLAO","tin_number":"002-394-238-198","zip_code":"6223"},{"phone_number":"09479990801","city":"Canlaon City","node_access_lock":"MLB-PH-VM-NEGORISIQ-B-CANLA2","code":"vm-negorisiq-b-canlaon_2-588","province":"Negros Oriental","name":"M Lhuillier Canlaon 2","area":"Area B","official_branch_address":"F & C BUILDING, MABINI ST., MABIGO, CANLAON CITY, NEGROS ORIENTAL","country":"PH","region":{"code":"vm-negorisiq","meta":{"href":"https:\/\/www.mlepay.com\/api\/v1\/regions\/vm-negorisiq"},"name":"Negros Oriental\/Siquijor Region"},"business_hours":"8:00 AM TO 6:00 PM","street_address1":"F & C Bldg.,Mabini St.","id":"588","latlong":"10.386486, 123.220170","meta":{"href":"https:\/\/www.mlepay.com\/api\/v1\/branches\/vm-negorisiq-b-canlaon_2-588"},"status":"ACTIVE","ho":"Visayas\/Mindanao","bc_kp":"CANLA2","tin_number":"004-265-130-409","zip_code":"6223"},{"phone_number":"035-2313180","city":"Guihulngan City","node_access_lock":"MLB-PH-VM-NEGORISIQ-B-GUIHUL","code":"vm-negorisiq-b-guihulngan-153","province":"Negros Oriental","name":"M Lhuillier Guihulngan","area":"Area B","official_branch_address":"ML QUEZON ST. GUIHULNGAN, NEG. OR.","country":"PH","region":{"code":"vm-negorisiq","meta":{"href":"https:\/\/www.mlepay.com\/api\/v1\/regions\/vm-negorisiq"},"name":"Negros Oriental\/Siquijor Region"},"business_hours":"7:00 AM TO 6:00 PM","street_address1":"ML Quezon St. Guihulngan Negros Oriental","id":"153","latlong":"10.119368, 123.271258","meta":{"href":"https:\/\/www.mlepay.com\/api\/v1\/branches\/vm-negorisiq-b-guihulngan-153"},"status":"ACTIVE","ho":"Visayas\/Mindanao","bc_kp":"GUIHUL","tin_number":"002394238196","zip_code":"6214"},{"phone_number":"09479990781","city":"Jimalalud","node_access_lock":"MLB-PH-VM-NEGORISIQ-B-JIMALA","code":"vm-negorisiq-b-jimalalud-154","province":"Negros Oriental","name":"M Lhuillier Jimalalud","area":"Area B","official_branch_address":"NATIONAL HIGHWAY COR. PS EURAOBA ST. NORTH POBLACION JIMALALUD NEG. OR.","country":"PH","region":{"code":"vm-negorisiq","meta":{"href":"https:\/\/www.mlepay.com\/api\/v1\/regions\/vm-negorisiq"},"name":"Negros Oriental\/Siquijor Region"},"business_hours":"8:00 AM TO 6:00 PM","street_address1":"Cor National Hi-way & PS Eyuraba Sts.","id":"154","latlong":"9.980645,  123.200797","meta":{"href":"https:\/\/www.mlepay.com\/api\/v1\/branches\/vm-negorisiq-b-jimalalud-154"},"status":"ACTIVE","ho":"Visayas\/Mindanao","bc_kp":"JIMALA","tin_number":"002-394-238-426","zip_code":"6212"},{"phone_number":"09479992244","city":"Mabinay","node_access_lock":"MLB-PH-VM-NEGORISIQ-B-LMBANG","code":"vm-negorisiq-b-lumbangan-798","province":"Negros Oriental","name":"M Lhuillier Lumbangan","area":"Area B","official_branch_address":"lumbangan, mabinay negros oriental","country":"PH","region":{"code":"vm-negorisiq","meta":{"href":"https:\/\/www.mlepay.com\/api\/v1\/regions\/vm-negorisiq"},"name":"Negros Oriental\/Siquijor Region"},"business_hours":"NA","street_address1":"Brgy. Lumbangan","id":"798","latlong":"9.734389, 122.906963","meta":{"href":"https:\/\/www.mlepay.com\/api\/v1\/branches\/vm-negorisiq-b-lumbangan-798"},"status":"ACTIVE","ho":"Visayas\/Mindanao","bc_kp":"LMBANG","tin_number":"004265130","zip_code":""},{"phone_number":"(947) 999-0858","city":"Mabinay","node_access_lock":"MLB-PH-VM-NEGORISIQ-B-MABINA","code":"vm-negorisiq-b-mabinay-529","province":"Negros Oriental","name":"M Lhuillier Mabinay","area":"Area B","official_branch_address":"tumapa st. poblacio mabinay neg or","country":"PH","region":{"code":"vm-negorisiq","meta":{"href":"https:\/\/www.mlepay.com\/api\/v1\/regions\/vm-negorisiq"},"name":"Negros Oriental\/Siquijor Region"},"business_hours":"8:00 AM TO 6:00 PM","street_address1":"Tumapa St, Poblacion","id":"529","latlong":"9.727204881658833, 122.92738191783428","meta":{"href":"https:\/\/www.mlepay.com\/api\/v1\/branches\/vm-negorisiq-b-mabinay-529"},"status":"ACTIVE","ho":"Visayas\/Mindanao","bc_kp":"MABINA","tin_number":"044-265-130-246","zip_code":"6207"},{"phone_number":"09479990891","city":"Manjuyod","node_access_lock":"MLB-PH-VM-NEGORISIQ-B-MANJUY","code":"vm-negorisiq-b-manjuyod-530","province":"Negros Oriental","name":"M Lhuillier Manjuyod","area":"Area B","official_branch_address":"POBLACION MANJUYOD NEGROS ORIENTAL","country":"PH","region":{"code":"vm-negorisiq","meta":{"href":"https:\/\/www.mlepay.com\/api\/v1\/regions\/vm-negorisiq"},"name":"Negros Oriental\/Siquijor Region"},"business_hours":"NA","street_address1":"Cafreros Bldg.,Poblacion","id":"530","latlong":"9.686409, 123.151953","meta":{"href":"https:\/\/www.mlepay.com\/api\/v1\/branches\/vm-negorisiq-b-manjuyod-530"},"status":"ACTIVE","ho":"Visayas\/Mindanao","bc_kp":"MANJUY","tin_number":"004-265-130-258","zip_code":"6208"},{"phone_number":"0354159289","city":"Tanjay City","node_access_lock":"MLB-PH-VM-NEGORISIQ-B-TANJAY","code":"vm-negorisiq-b-tanjay_1-160","province":"Negros Oriental","name":"M Lhuillier Tanjay 1","area":"Area B","official_branch_address":"490 MAGALLANES ST TANJAY CITY","country":"PH","region":{"code":"vm-negorisiq","meta":{"href":"https:\/\/www.mlepay.com\/api\/v1\/regions\/vm-negorisiq"},"name":"Negros Oriental\/Siquijor Region"},"business_hours":"8:00 AM TO 8:00 AM","street_address1":"490 Magallanes St.","id":"160","latlong":"9.514390, 123.156632","meta":{"href":"https:\/\/www.mlepay.com\/api\/v1\/branches\/vm-negorisiq-b-tanjay_1-160"},"status":"ACTIVE","ho":"Visayas\/Mindanao","bc_kp":"TANJAY","tin_number":"002-394-238","zip_code":"6204"},{"phone_number":"035-415-8393","city":"Tanjay City","node_access_lock":"MLB-PH-VM-NEGORISIQ-C-TANJA2","code":"vm-negorisiq-b-tanjay_2-161","province":"Negros Oriental","name":"M Lhuillier Tanjay 2","area":"Area C","official_branch_address":"NONO LIMBAGA DRIVE, TANJAY CITY, NEGROS ORIENTAL","country":"PH","region":{"code":"vm-negorisiq","meta":{"href":"https:\/\/www.mlepay.com\/api\/v1\/regions\/vm-negorisiq"},"name":"Negros Oriental\/Siquijor Region"},"business_hours":"7:00 AM TO 7:00 PM","street_address1":"Nono Libaga Drive","id":"161","latlong":"9.513775,  123.158393","meta":{"href":"https:\/\/www.mlepay.com\/api\/v1\/branches\/vm-negorisiq-b-tanjay_2-161"},"status":"ACTIVE","ho":"Visayas\/Mindanao","bc_kp":"TANJA2","tin_number":"002-394-238-427","zip_code":"6204"},{"phone_number":"09479990362","city":"Tayasan","node_access_lock":"MLB-PH-VM-NEGORISIQ-B-TAYASA","code":"vm-negorisiq-b-tayasan-657","province":"Negros Oriental","name":"M Lhuillier Tayasan","area":"Area B","official_branch_address":"Fabugais St. Pob. Tayasan,Negros Oriental","country":"PH","region":{"code":"vm-negorisiq","meta":{"href":"https:\/\/www.mlepay.com\/api\/v1\/regions\/vm-negorisiq"},"name":"Negros Oriental\/Siquijor Region"},"business_hours":"8:00 AM TO 6:00 PM","street_address1":"Pabugais St.","id":"657","latlong":"9.915229,  123.155970","meta":{"href":"https:\/\/www.mlepay.com\/api\/v1\/branches\/vm-negorisiq-b-tayasan-657"},"status":"ACTIVE","ho":"Visayas\/Mindanao","bc_kp":"TAYASA","tin_number":"004-265-130-592","zip_code":"6211"},{"phone_number":"09479992201","city":"Amlan","node_access_lock":"MLB-PH-VM-NEGORISIQ-C-AMLAN","code":"vm-negorisiq-c-amlan-758","province":"Negros Oriental","name":"M Lhuillier Amlan","area":"Area C","official_branch_address":"MAG-ABO AMLAN NEGROS ORIENTAL","country":"PH","region":{"code":"vm-negorisiq","meta":{"href":"https:\/\/www.mlepay.com\/api\/v1\/regions\/vm-negorisiq"},"name":"Negros Oriental\/Siquijor Region"},"business_hours":"8:00 AM TO 6:00 PM","street_address1":"Nat'l Highway Pob.-Beside Noreco Collection Amlan, Neg Or.","id":"758","latlong":"9.466854,  123.217831","meta":{"href":"https:\/\/www.mlepay.com\/api\/v1\/branches\/vm-negorisiq-c-amlan-758"},"status":"ACTIVE","ho":"Visayas\/Mindanao","bc_kp":"AMLAN","tin_number":"004-265-130-847","zip_code":"6203"},{"phone_number":"035-420-9350","city":"Dumaguete City","node_access_lock":"MLB-PH-VM-NEGORISIQ-C-CAPIDU","code":"vm-negorisiq-c-dumaguete_capitol-0","province":"Negros Oriental","name":"M Lhuillier Dumaguete Capitol","area":"Area C","official_branch_address":"In front of Provincial Capitol, Real St., Dumaguete City","country":"PH","region":{"code":"vm-negorisiq","meta":{"href":"https:\/\/www.mlepay.com\/api\/v1\/regions\/vm-negorisiq"},"name":"Negros Oriental\/Siquijor Region"},"business_hours":"7:00 AM TO 7:00 PM","street_address1":"North National Hi-way, Fronting Freedom Park, Dumaguete City","id":"15","latlong":"9.313252,, 123.303863","meta":{"href":"https:\/\/www.mlepay.com\/api\/v1\/branches\/vm-negorisiq-c-dumaguete_capitol-0"},"status":"ACTIVE","ho":"Visayas\/Mindanao","bc_kp":"CAPIDU","tin_number":"002-438-380-285","zip_code":"6200"},{"phone_number":"(035)420-9252","city":"Dumaguete City","node_access_lock":"MLB-PH-VM-NEGORISIQ-C-FOUNDA","code":"vm-negorisiq-c-foundation-631","province":"Negros Oriental","name":"M Lhuillier Foundation","area":"Area C","official_branch_address":"Near Foundation University, 155 Dr. Meciano Rd., Taclobo, Dgte. City, Negros Oriental","country":"PH","region":{"code":"vm-negorisiq","meta":{"href":"https:\/\/www.mlepay.com\/api\/v1\/regions\/vm-negorisiq"},"name":"Negros Oriental\/Siquijor Region"},"business_hours":"8:00 AM TO 7:00 PM","street_address1":"Near Foundation Univ., 155 Dr. Meciano Rd., Taclobo,Negros Oriental,Dumaguete City","id":"631","latlong":"9.3063699767875, 123.29810947179794","meta":{"href":"https:\/\/www.mlepay.com\/api\/v1\/branches\/vm-negorisiq-c-foundation-631"},"status":"ACTIVE","ho":"Visayas\/Mindanao","bc_kp":"FOUNDA","tin_number":"002-438-380-270","zip_code":"6200"},{"phone_number":"09479992832","city":"San Jose","node_access_lock":"MLB-PH-VM-NEGORISIQ-C-SNJONO","code":"vm-negorisiq-c-san_jose-899","province":"Negros Oriental","name":"M Lhuillier San Jose","area":"Area C","official_branch_address":"Fronting Public Market, Poblacion San Jose, Negros Oriental","country":"PH","region":{"code":"vm-negorisiq","meta":{"href":"https:\/\/www.mlepay.com\/api\/v1\/regions\/vm-negorisiq"},"name":"Negros Oriental\/Siquijor Region"},"business_hours":"8:00 AM TO 6:00 PM","street_address1":"Poblacion,San Jose,Negros Oriental","id":"899","latlong":"9.415377, 123.240228","meta":{"href":"https:\/\/www.mlepay.com\/api\/v1\/branches\/vm-negorisiq-c-san_jose-899"},"status":"ACTIVE","ho":"Visayas\/Mindanao","bc_kp":"SNJONO","tin_number":"002-438-380-271","zip_code":"6202"},{"phone_number":"(035)4198680","city":"Sibulan","node_access_lock":"MLB-PH-VM-NEGORISIQ-C-SIBULA","code":"vm-negorisiq-c-sibulan-305","province":"Negros Oriental","name":"M Lhuillier Sibulan","area":"Area C","official_branch_address":"NATIONAL HIGHWAY,SIBULAN, NEGROS ORIENTAL","country":"PH","region":{"code":"vm-negorisiq","meta":{"href":"https:\/\/www.mlepay.com\/api\/v1\/regions\/vm-negorisiq"},"name":"Negros Oriental\/Siquijor Region"},"business_hours":"8:00 AM TO 7:00 PM","street_address1":"Poblacion, National Highway, Sibulan, Negros Oriental","id":"305","latlong":"9.356956,  123.284572","meta":{"href":"https:\/\/www.mlepay.com\/api\/v1\/branches\/vm-negorisiq-c-sibulan-305"},"status":"ACTIVE","ho":"Visayas\/Mindanao","bc_kp":"SIBULA","tin_number":"004-265-130-882","zip_code":"6201"},{"phone_number":"+639479990724","city":"Gen. Mac Arthur","node_access_lock":"MLB-PH-VM-SAMAR-D-GENMAC","code":"vm-samar-d-gen_mac-239","province":"Eastern Samar","name":"M Lhuillier Gen Mac","area":"Area D","official_branch_address":"San Jose St., Brgy 05, Gen Macarthur, Eastern Samar","country":"PH","region":{"code":"vm-samar","meta":{"href":"https:\/\/www.mlepay.com\/api\/v1\/regions\/vm-samar"},"name":"Samar Region"},"business_hours":"7:00 AM TO 6:00 PM","street_address1":"San Jose St, Brgy 05 Pob Gen MacArthur","id":"239","latlong":"11.245976880994492, 125.54011702537537","meta":{"href":"https:\/\/www.mlepay.com\/api\/v1\/branches\/vm-samar-d-gen_mac-239"},"status":"ACTIVE","ho":"Visayas\/Mindanao","bc_kp":"GENMAC","tin_number":"002-438-380-135","zip_code":"6805"},{"phone_number":"09479992342","city":"Guiuan","node_access_lock":"MLB-PH-VM-SAMAR-D-GUIUA2","code":"vm-samar-d-guiuan_2-646","province":"Eastern Samar","name":"M Lhuillier Guiuan 2","area":"Area D","official_branch_address":"LUGAY ST., BRGY. 05, GUIUAN EASTERN SAMAR","country":"PH","region":{"code":"vm-samar","meta":{"href":"https:\/\/www.mlepay.com\/api\/v1\/regions\/vm-samar"},"name":"Samar Region"},"business_hours":"7:00 AM TO 6:00 PM","street_address1":"Lugay Street","id":"646","latlong":"11.030048263719355, 125.724116563797","meta":{"href":"https:\/\/www.mlepay.com\/api\/v1\/branches\/vm-samar-d-guiuan_2-646"},"status":"ACTIVE","ho":"Visayas\/Mindanao","bc_kp":"GUIUA2","tin_number":"004265130577","zip_code":"6809"}]